2020-10-13 18:49:48,268 INFO pitch:0;roll:0;yaw:0;vgx:0;vgy:0;vgz:0;templ:77;temph:79;tof:10;h:0;bat:32;baro:147.19;time:0;agx:2.00;agy:-11.00;agz:-999.00;
2020-10-13 18:49:48,369 INFO pitch:0;roll:0;yaw:0;vgx:0;vgy:0;vgz:0;templ:77;temph:79;tof:10;h:0;bat:32;baro:147.20;time:0;agx:0.00;agy:-10.00;agz:-999.00;
2020-10-13 18:49:48,473 INFO pitch:0;roll:0;yaw:0;vgx:0;vgy:0;vgz:0;templ:77;temph:79;tof:10;h:0;bat:32;baro:147.20;time:0;agx:1.00;agy:-10.00;agz:-1000.00;
2020-10-13 18:49:48,575 INFO pitch:0;roll:0;yaw:0;vgx:0;vgy:0;vgz:0;templ:77;temph:79;tof:10;h:0;bat:32;baro:147.20;time:0;agx:2.00;agy:-11.00;agz:-1001.00;
2020-10-13 18:49:48,676 INFO pitch:0;roll:0;yaw:0;vgx:0;vgy:0;vgz:0;templ:77;temph:79;tof:10;h:0;bat:32;baro:147.12;time:0;agx:1.00;agy:-11.00;agz:-1000.00;
2020-10-13 18:49:48,778 INFO pitch:0;roll:0;yaw:0;vgx:0;vgy:0;vgz:0;templ:77;temph:79;tof:10;h:0;bat:32;baro:147.16;time:0;agx:0.00;agy:-12.00;agz:-1003.00;
2020-10-13 18:49:48,880 INFO pitch:0;roll:0;yaw:0;vgx:0;vgy:0;vgz:0;templ:77;temph:79;tof:10;h:0;bat:32;baro:147.13;time:0;agx:0.00;agy:-11.00;agz:-1000.00;
2020-10-13 18:49:48,982 INFO pitch:0;roll:0;yaw:0;vgx:0;vgy:0;vgz:0;templ:77;temph:79;tof:10;h:0;bat:32;baro:147.20;time:0;agx:0.00;agy:-9.00;agz:-1001.00;
2020-10-13 18:49:49,084 INFO pitch:0;roll:0;yaw:0;vgx:0;vgy:0;vgz:0;templ:77;temph:79;tof:10;h:0;bat:32;baro:147.17;time:0;agx:0.00;agy:-9.00;agz:-1001.00;
2020-10-13 18:49:49,186 INFO pitch:0;roll:0;yaw:0;vgx:0;vgy:0;vgz:0;templ:77;temph:79;tof:10;h:0;bat:32;baro:147.16;time:0;agx:0.00;agy:-10.00;agz:-1002.00;
2020-10-13 18:49:49,288 INFO pitch:0;roll:0;yaw:0;vgx:0;vgy:0;vgz:0;templ:77;temph:79;tof:10;h:0;bat:32;baro:147.18;time:0;agx:2.00;agy:-10.00;agz:-999.00;
2020-10-13 18:49:49,392 INFO pitch:0;roll:0;yaw:0;vgx:0;vgy:0;vgz:0;templ:77;temph:79;tof:10;h:0;bat:32;baro:147.16;time:0;agx:1.00;agy:-11.00;agz:-998.00;
2020-10-13 18:49:49,492 INFO pitch:0;roll:0;yaw:0;vgx:0;vgy:0;vgz:0;templ:77;temph:79;tof:10;h:0;bat:32;baro:147.20;time:0;agx:2.00;agy:-10.00;agz:-997.00;
2020-10-13 18:49:49,594 INFO pitch:0;roll:0;yaw:0;vgx:0;vgy:0;vgz:0;templ:77;temph:79;tof:10;h:0;bat:32;baro:147.16;time:0;agx:2.00;agy:-10.00;agz:-1002.00;
2020-10-13 18:49:49,696 INFO pitch:0;roll:0;yaw:0;vgx:0;vgy:0;vgz:0;templ:77;temph:79;tof:10;h:0;bat:32;baro:147.16;time:0;agx:1.00;agy:-12.00;agz:-1000.00;
2020-10-13 18:49:49,798 INFO pitch:0;roll:0;yaw:0;vgx:0;vgy:0;vgz:0;templ:77;temph:79;tof:10;h:0;bat:32;baro:147.13;time:0;agx:1.00;agy:-10.00;agz:-999.00;
2020-10-13 18:49:49,900 INFO pitch:0;roll:0;yaw:0;vgx:0;vgy:0;vgz:0;templ:77;temph:79;tof:10;h:0;bat:32;baro:147.17;time:0;agx:1.00;agy:-12.00;agz:-1000.00;
2020-10-13 18:49:50,002 INFO pitch:0;roll:0;yaw:0;vgx:0;vgy:0;vgz:0;templ:77;temph:79;tof:10;h:0;bat:32;baro:147.09;time:0;agx:1.00;agy:-12.00;agz:-1002.00;
2020-10-13 18:49:50,104 INFO pitch:0;roll:0;yaw:0;vgx:0;vgy:0;vgz:0;templ:77;temph:79;tof:10;h:0;bat:32;baro:147.13;time:0;agx:1.00;agy:-11.00;agz:-1000.00;
2020-10-13 18:49:50,206 INFO pitch:0;roll:0;yaw:0;vgx:0;vgy:0;vgz:0;templ:77;temph:79;tof:10;h:0;bat:32;baro:147.19;time:0;agx:0.00;agy:-10.00;agz:-1002.00;
2020-10-13 18:49:50,308 INFO pitch:0;roll:0;yaw:0;vgx:0;vgy:0;vgz:0;templ:77;temph:79;tof:10;h:0;bat:32;baro:147.20;time:0;agx:0.00;agy:-12.00;agz:-999.00;
2020-10-13 18:49:50,410 INFO pitch:0;roll:0;yaw:0;vgx:0;vgy:0;vgz:0;templ:77;temph:79;tof:10;h:0;bat:32;baro:147.15;time:0;agx:0.00;agy:-9.00;agz:-999.00;
2020-10-13 18:49:50,513 INFO pitch:0;roll:0;yaw:0;vgx:0;vgy:0;vgz:0;templ:77;temph:79;tof:10;h:0;bat:32;baro:147.15;time:0;agx:0.00;agy:-12.00;agz:-1000.00;
2020-10-13 18:49:50,617 INFO pitch:0;roll:0;yaw:0;vgx:0;vgy:0;vgz:0;templ:78;temph:80;tof:10;h:0;bat:32;baro:147.13;time:0;agx:1.00;agy:-10.00;agz:-1002.00;
2020-10-13 18:49:50,666 INFO pitch:0;roll:0;yaw:0;vgx:0;vgy:0;vgz:0;templ:78;temph:80;tof:10;h:0;bat:32;baro:147.10;time:0;agx:2.00;agy:-11.00;agz:-1000.00;
2020-10-13 18:49:50,768 INFO pitch:0;roll:0;yaw:0;vgx:0;vgy:0;vgz:0;templ:78;temph:80;tof:10;h:0;bat:31;baro:147.19;time:0;agx:1.00;agy:-12.00;agz:-1003.00;
2020-10-13 18:49:50,870 INFO pitch:0;roll:0;yaw:0;vgx:0;vgy:0;vgz:0;templ:78;temph:80;tof:10;h:0;bat:31;baro:147.18;time:0;agx:1.00;agy:-11.00;agz:-1000.00;
2020-10-13 18:49:50,972 INFO pitch:0;roll:0;yaw:0;vgx:0;vgy:0;vgz:0;templ:78;temph:80;tof:10;h:0;bat:31;baro:147.14;time:0;agx:1.00;agy:-12.00;agz:-1001.00;
2020-10-13 18:49:51,074 INFO pitch:0;roll:0;yaw:0;vgx:0;vgy:0;vgz:0;templ:78;temph:80;tof:10;h:0;bat:31;baro:147.18;time:0;agx:1.00;agy:-10.00;agz:-1000.00;
2020-10-13 18:49:51,280 INFO pitch:0;roll:0;yaw:0;vgx:0;vgy:0;vgz:0;templ:78;temph:80;tof:10;h:0;bat:31;baro:147.17;time:0;agx:0.00;agy:-11.00;agz:-1001.00;
2020-10-13 18:49:51,280 INFO pitch:0;roll:0;yaw:0;vgx:0;vgy:0;vgz:0;templ:78;temph:80;tof:10;h:0;bat:31;baro:147.15;time:0;agx:1.00;agy:-11.00;agz:-1000.00;
2020-10-13 18:49:51,380 INFO pitch:0;roll:0;yaw:0;vgx:0;vgy:0;vgz:0;templ:78;temph:80;tof:10;h:0;bat:31;baro:147.18;time:0;agx:1.00;agy:-10.00;agz:-999.00;
2020-10-13 18:49:51,483 INFO pitch:0;roll:0;yaw:0;vgx:0;vgy:0;vgz:0;templ:78;temph:80;tof:10;h:0;bat:31;baro:147.20;time:0;agx:0.00;agy:-12.00;agz:-999.00;
2020-10-13 18:49:51,690 INFO pitch:0;roll:0;yaw:0;vgx:0;vgy:0;vgz:0;templ:77;temph:80;tof:10;h:0;bat:31;baro:147.21;time:0;agx:2.00;agy:-9.00;agz:-999.00;
2020-10-13 18:49:51,690 INFO pitch:0;roll:0;yaw:0;vgx:0;vgy:0;vgz:0;templ:77;temph:80;tof:10;h:0;bat:31;baro:147.17;time:0;agx:0.00;agy:-10.00;agz:-999.00;
2020-10-13 18:49:51,790 INFO pitch:0;roll:0;yaw:0;vgx:0;vgy:0;vgz:0;templ:77;temph:80;tof:10;h:0;bat:31;baro:147.21;time:0;agx:2.00;agy:-10.00;agz:-1002.00;
2020-10-13 18:49:51,894 INFO pitch:0;roll:0;yaw:0;vgx:0;vgy:0;vgz:0;templ:77;temph:80;tof:10;h:0;bat:31;baro:147.18;time:0;agx:1.00;agy:-11.00;agz:-1003.00;
2020-10-13 18:49:51,992 INFO pitch:0;roll:0;yaw:0;vgx:0;vgy:0;vgz:0;templ:77;temph:80;tof:10;h:0;bat:31;baro:147.12;time:0;agx:1.00;agy:-11.00;agz:-1000.00;
2020-10-13 18:49:52,096 INFO pitch:0;roll:0;yaw:0;vgx:0;vgy:0;vgz:0;templ:77;temph:80;tof:10;h:0;bat:31;baro:147.15;time:0;agx:1.00;agy:-11.00;agz:-1001.00;
2020-10-13 18:49:52,197 INFO pitch:0;roll:0;yaw:0;vgx:0;vgy:0;vgz:0;templ:77;temph:80;tof:10;h:0;bat:31;baro:147.17;time:0;agx:2.00;agy:-9.00;agz:-998.00;
2020-10-13 18:49:52,299 INFO pitch:0;roll:0;yaw:0;vgx:0;vgy:0;vgz:0;templ:77;temph:80;tof:10;h:0;bat:31;baro:147.16;time:0;agx:0.00;agy:-10.00;agz:-1000.00;
2020-10-13 18:49:52,401 INFO pitch:0;roll:0;yaw:0;vgx:0;vgy:0;vgz:0;templ:77;temph:80;tof:10;h:0;bat:31;baro:147.20;time:0;agx:0.00;agy:-11.00;agz:-1001.00;
2020-10-13 18:49:52,503 INFO pitch:0;roll:0;yaw:0;vgx:0;vgy:0;vgz:0;templ:77;temph:80;tof:10;h:0;bat:31;baro:147.21;time:0;agx:0.00;agy:-11.00;agz:-999.00;
2020-10-13 18:49:52,604 INFO pitch:0;roll:0;yaw:0;vgx:0;vgy:0;vgz:0;templ:78;temph:79;tof:10;h:0;bat:31;baro:147.14;time:0;agx:0.00;agy:-11.00;agz:-998.00;
2020-10-13 18:49:52,706 INFO pitch:0;roll:0;yaw:0;vgx:0;vgy:0;vgz:0;templ:78;temph:79;tof:10;h:0;bat:31;baro:147.18;time:0;agx:1.00;agy:-10.00;agz:-999.00;
2020-10-13 18:49:52,809 INFO pitch:0;roll:0;yaw:0;vgx:0;vgy:0;vgz:0;templ:78;temph:79;tof:10;h:0;bat:31;baro:147.19;time:0;agx:2.00;agy:-12.00;agz:-1000.00;
2020-10-13 18:49:52,911 INFO pitch:0;roll:0;yaw:0;vgx:0;vgy:0;vgz:0;templ:78;temph:79;tof:10;h:0;bat:31;baro:147.15;time:0;agx:0.00;agy:-10.00;agz:-999.00;
2020-10-13 18:49:53,013 INFO pitch:0;roll:0;yaw:0;vgx:0;vgy:0;vgz:0;templ:78;temph:79;tof:10;h:0;bat:31;baro:147.17;time:0;agx:0.00;agy:-11.00;agz:-999.00;
2020-10-13 18:49:53,115 INFO pitch:0;roll:0;yaw:0;vgx:0;vgy:0;vgz:0;templ:78;temph:79;tof:10;h:0;bat:31;baro:147.24;time:0;agx:1.00;agy:-12.00;agz:-1000.00;
2020-10-13 18:49:53,166 INFO pitch:0;roll:0;yaw:0;vgx:0;vgy:0;vgz:0;templ:78;temph:79;tof:10;h:0;bat:31;baro:147.18;time:0;agx:2.00;agy:-11.00;agz:-1000.00;
2020-10-13 18:49:53,268 INFO pitch:0;roll:0;yaw:0;vgx:0;vgy:0;vgz:0;templ:78;temph:79;tof:10;h:0;bat:31;baro:147.17;time:0;agx:1.00;agy:-11.00;agz:-999.00;
2020-10-13 18:49:53,370 INFO pitch:0;roll:0;yaw:0;vgx:0;vgy:0;vgz:0;templ:78;temph:79;tof:10;h:0;bat:31;baro:147.19;time:0;agx:0.00;agy:-11.00;agz:-1000.00;
2020-10-13 18:49:53,473 INFO pitch:0;roll:0;yaw:0;vgx:0;vgy:0;vgz:0;templ:78;temph:79;tof:10;h:0;bat:31;baro:147.20;time:0;agx:2.00;agy:-10.00;agz:-1002.00;
2020-10-13 18:49:53,574 INFO pitch:0;roll:0;yaw:0;vgx:0;vgy:0;vgz:0;templ:78;temph:81;tof:10;h:0;bat:31;baro:147.19;time:0;agx:1.00;agy:-11.00;agz:-1000.00;
2020-10-13 18:49:53,676 INFO pitch:0;roll:0;yaw:0;vgx:0;vgy:0;vgz:0;templ:78;temph:81;tof:10;h:0;bat:31;baro:147.23;time:0;agx:1.00;agy:-10.00;agz:-1000.00;
2020-10-13 18:49:53,778 INFO pitch:0;roll:0;yaw:0;vgx:0;vgy:0;vgz:0;templ:78;temph:81;tof:10;h:0;bat:31;baro:147.20;time:0;agx:0.00;agy:-9.00;agz:-999.00;
2020-10-13 18:49:53,880 INFO pitch:0;roll:0;yaw:0;vgx:0;vgy:0;vgz:0;templ:78;temph:81;tof:10;h:0;bat:31;baro:147.14;time:0;agx:1.00;agy:-10.00;agz:-1001.00;
2020-10-13 18:49:53,984 INFO pitch:0;roll:0;yaw:0;vgx:0;vgy:0;vgz:0;templ:78;temph:81;tof:10;h:0;bat:31;baro:147.21;time:0;agx:1.00;agy:-11.00;agz:-1001.00;
2020-10-13 18:49:54,084 INFO pitch:0;roll:0;yaw:0;vgx:0;vgy:0;vgz:0;templ:78;temph:81;tof:10;h:0;bat:31;baro:147.19;time:0;agx:1.00;agy:-10.00;agz:-1000.00;
2020-10-13 18:49:54,186 INFO pitch:0;roll:0;yaw:0;vgx:0;vgy:0;vgz:0;templ:78;temph:81;tof:10;h:0;bat:31;baro:147.19;time:0;agx:0.00;agy:-11.00;agz:-998.00;
2020-10-13 18:49:54,288 INFO pitch:0;roll:0;yaw:0;vgx:0;vgy:0;vgz:0;templ:78;temph:81;tof:10;h:0;bat:31;baro:147.19;time:0;agx:1.00;agy:-11.00;agz:-999.00;
2020-10-13 18:49:54,390 INFO pitch:0;roll:0;yaw:0;vgx:0;vgy:0;vgz:0;templ:78;temph:81;tof:10;h:0;bat:31;baro:147.23;time:0;agx:1.00;agy:-10.00;agz:-998.00;
2020-10-13 18:49:54,492 INFO pitch:0;roll:0;yaw:0;vgx:0;vgy:0;vgz:0;templ:78;temph:81;tof:10;h:0;bat:31;baro:147.26;time:0;agx:1.00;agy:-11.00;agz:-1001.00;
2020-10-13 18:49:54,594 INFO pitch:0;roll:0;yaw:0;vgx:0;vgy:0;vgz:0;templ:78;temph:80;tof:10;h:0;bat:31;baro:147.15;time:0;agx:0.00;agy:-11.00;agz:-1000.00;
2020-10-13 18:49:54,696 INFO pitch:0;roll:0;yaw:0;vgx:0;vgy:0;vgz:0;templ:78;temph:80;tof:10;h:0;bat:31;baro:147.18;time:0;agx:1.00;agy:-10.00;agz:-1003.00;
2020-10-13 18:49:54,798 INFO pitch:0;roll:0;yaw:0;vgx:0;vgy:0;vgz:0;templ:78;temph:80;tof:10;h:0;bat:31;baro:147.17;time:0;agx:1.00;agy:-11.00;agz:-1001.00;
2020-10-13 18:49:54,900 INFO pitch:0;roll:0;yaw:0;vgx:0;vgy:0;vgz:0;templ:78;temph:80;tof:10;h:0;bat:31;baro:147.14;time:0;agx:1.00;agy:-11.00;agz:-998.00;
2020-10-13 18:49:55,002 INFO pitch:0;roll:0;yaw:0;vgx:0;vgy:0;vgz:0;templ:78;temph:80;tof:10;h:0;bat:31;baro:147.13;time:0;agx:1.00;agy:-11.00;agz:-1000.00;
2020-10-13 18:49:55,104 INFO pitch:0;roll:0;yaw:0;vgx:0;vgy:0;vgz:0;templ:78;temph:80;tof:10;h:0;bat:31;baro:147.19;time:0;agx:0.00;agy:-12.00;agz:-1001.00;
2020-10-13 18:49:55,206 INFO pitch:0;roll:0;yaw:0;vgx:0;vgy:0;vgz:0;templ:78;temph:80;tof:10;h:0;bat:31;baro:147.22;time:0;agx:1.00;agy:-10.00;agz:-999.00;
2020-10-13 18:49:55,308 INFO pitch:0;roll:0;yaw:0;vgx:0;vgy:0;vgz:0;templ:78;temph:80;tof:10;h:0;bat:31;baro:147.22;time:0;agx:1.00;agy:-10.00;agz:-1000.00;
2020-10-13 18:49:55,410 INFO pitch:0;roll:0;yaw:0;vgx:0;vgy:0;vgz:0;templ:78;temph:80;tof:10;h:0;bat:31;baro:147.24;time:0;agx:1.00;agy:-12.00;agz:-1000.00;
2020-10-13 18:49:55,512 INFO pitch:0;roll:0;yaw:0;vgx:0;vgy:0;vgz:0;templ:78;temph:80;tof:10;h:0;bat:31;baro:147.24;time:0;agx:0.00;agy:-11.00;agz:-1001.00;
2020-10-13 18:49:55,614 INFO pitch:0;roll:0;yaw:0;vgx:0;vgy:0;vgz:0;templ:78;temph:79;tof:10;h:0;bat:31;baro:147.20;time:0;agx:1.00;agy:-11.00;agz:-1002.00;
2020-10-13 18:49:55,716 INFO pitch:0;roll:0;yaw:0;vgx:0;vgy:0;vgz:0;templ:78;temph:79;tof:10;h:0;bat:31;baro:147.25;time:0;agx:1.00;agy:-11.00;agz:-998.00;
2020-10-13 18:49:55,818 INFO pitch:0;roll:0;yaw:0;vgx:0;vgy:0;vgz:0;templ:78;temph:79;tof:10;h:0;bat:31;baro:147.23;time:0;agx:1.00;agy:-11.00;agz:-999.00;
2020-10-13 18:49:55,921 INFO pitch:0;roll:0;yaw:0;vgx:0;vgy:0;vgz:0;templ:78;temph:79;tof:10;h:0;bat:31;baro:147.23;time:0;agx:0.00;agy:-12.00;agz:-1000.00;
2020-10-13 18:49:56,023 INFO pitch:0;roll:0;yaw:0;vgx:0;vgy:0;vgz:0;templ:78;temph:79;tof:10;h:0;bat:31;baro:147.25;time:0;agx:1.00;agy:-11.00;agz:-1000.00;
2020-10-13 18:49:56,073 INFO pitch:0;roll:0;yaw:0;vgx:0;vgy:0;vgz:0;templ:78;temph:79;tof:10;h:0;bat:31;baro:147.21;time:0;agx:0.00;agy:-11.00;agz:-999.00;
2020-10-13 18:49:56,175 INFO pitch:0;roll:0;yaw:0;vgx:0;vgy:0;vgz:0;templ:78;temph:79;tof:10;h:0;bat:31;baro:147.24;time:0;agx:1.00;agy:-10.00;agz:-1000.00;
2020-10-13 18:49:56,280 INFO pitch:0;roll:0;yaw:0;vgx:0;vgy:0;vgz:0;templ:78;temph:79;tof:10;h:0;bat:31;baro:147.22;time:0;agx:1.00;agy:-11.00;agz:-1000.00;
2020-10-13 18:49:56,380 INFO pitch:0;roll:0;yaw:0;vgx:0;vgy:0;vgz:0;templ:78;temph:79;tof:10;h:0;bat:31;baro:147.21;time:0;agx:1.00;agy:-12.00;agz:-998.00;
2020-10-13 18:49:56,483 INFO pitch:0;roll:0;yaw:0;vgx:0;vgy:0;vgz:0;templ:78;temph:79;tof:10;h:0;bat:31;baro:147.19;time:0;agx:2.00;agy:-10.00;agz:-1000.00;
2020-10-13 18:49:56,584 INFO pitch:0;roll:0;yaw:0;vgx:0;vgy:0;vgz:0;templ:78;temph:80;tof:10;h:0;bat:31;baro:147.18;time:0;agx:1.00;agy:-11.00;agz:-998.00;
2020-10-13 18:49:56,686 INFO pitch:0;roll:0;yaw:0;vgx:0;vgy:0;vgz:0;templ:78;temph:80;tof:10;h:0;bat:31;baro:147.21;time:0;agx:2.00;agy:-10.00;agz:-999.00;
2020-10-13 18:49:56,788 INFO pitch:0;roll:0;yaw:0;vgx:0;vgy:0;vgz:0;templ:78;temph:80;tof:10;h:0;bat:31;baro:147.24;time:0;agx:0.00;agy:-10.00;agz:-999.00;
2020-10-13 18:49:56,890 INFO pitch:0;roll:0;yaw:0;vgx:0;vgy:0;vgz:0;templ:78;temph:80;tof:10;h:0;bat:31;baro:147.18;time:0;agx:1.00;agy:-11.00;agz:-998.00;
2020-10-13 18:49:56,993 INFO pitch:0;roll:0;yaw:0;vgx:0;vgy:0;vgz:0;templ:78;temph:80;tof:10;h:0;bat:31;baro:147.26;time:0;agx:1.00;agy:-11.00;agz:-999.00;
2020-10-13 18:49:57,094 INFO pitch:0;roll:0;yaw:0;vgx:0;vgy:0;vgz:0;templ:78;temph:80;tof:10;h:0;bat:31;baro:147.18;time:0;agx:2.00;agy:-12.00;agz:-999.00;
2020-10-13 18:49:57,196 INFO pitch:0;roll:0;yaw:0;vgx:0;vgy:0;vgz:0;templ:78;temph:80;tof:10;h:0;bat:31;baro:147.20;time:0;agx:2.00;agy:-11.00;agz:-1000.00;
2020-10-13 18:49:57,298 INFO pitch:0;roll:0;yaw:0;vgx:0;vgy:0;vgz:0;templ:78;temph:80;tof:10;h:0;bat:31;baro:147.20;time:0;agx:2.00;agy:-10.00;agz:-999.00;
2020-10-13 18:49:57,400 INFO pitch:0;roll:0;yaw:0;vgx:0;vgy:0;vgz:0;templ:78;temph:80;tof:10;h:0;bat:31;baro:147.21;time:0;agx:0.00;agy:-11.00;agz:-998.00;
2020-10-13 18:49:57,502 INFO pitch:0;roll:0;yaw:0;vgx:0;vgy:0;vgz:0;templ:78;temph:80;tof:10;h:0;bat:31;baro:147.24;time:0;agx:0.00;agy:-12.00;agz:-998.00;
2020-10-13 18:49:57,604 INFO pitch:0;roll:0;yaw:0;vgx:0;vgy:0;vgz:0;templ:78;temph:80;tof:10;h:0;bat:31;baro:147.17;time:0;agx:0.00;agy:-11.00;agz:-999.00;
2020-10-13 18:49:57,706 INFO pitch:0;roll:0;yaw:0;vgx:0;vgy:0;vgz:0;templ:78;temph:80;tof:10;h:0;bat:31;baro:147.20;time:0;agx:2.00;agy:-11.00;agz:-1004.00;
2020-10-13 18:49:57,808 INFO pitch:0;roll:0;yaw:0;vgx:0;vgy:0;vgz:0;templ:78;temph:80;tof:10;h:0;bat:31;baro:147.22;time:0;agx:1.00;agy:-11.00;agz:-998.00;
2020-10-13 18:49:57,910 INFO pitch:0;roll:0;yaw:0;vgx:0;vgy:0;vgz:0;templ:78;temph:80;tof:10;h:0;bat:31;baro:147.13;time:0;agx:1.00;agy:-10.00;agz:-1000.00;
2020-10-13 18:49:58,012 INFO pitch:0;roll:0;yaw:0;vgx:0;vgy:0;vgz:0;templ:78;temph:80;tof:10;h:0;bat:31;baro:147.19;time:0;agx:0.00;agy:-10.00;agz:-1001.00;
2020-10-13 18:49:58,115 INFO pitch:0;roll:0;yaw:0;vgx:0;vgy:0;vgz:0;templ:78;temph:80;tof:10;h:0;bat:31;baro:147.19;time:0;agx:1.00;agy:-12.00;agz:-1000.00;
2020-10-13 18:49:58,216 INFO pitch:0;roll:0;yaw:0;vgx:0;vgy:0;vgz:0;templ:78;temph:80;tof:10;h:0;bat:31;baro:147.15;time:0;agx:1.00;agy:-12.00;agz:-1001.00;
2020-10-13 18:49:58,318 INFO pitch:0;roll:0;yaw:0;vgx:0;vgy:0;vgz:0;templ:78;temph:80;tof:10;h:0;bat:31;baro:147.20;time:0;agx:1.00;agy:-11.00;agz:-1000.00;
2020-10-13 18:49:58,420 INFO pitch:0;roll:0;yaw:0;vgx:0;vgy:0;vgz:0;templ:78;temph:80;tof:10;h:0;bat:31;baro:147.14;time:0;agx:0.00;agy:-10.00;agz:-1001.00;
2020-10-13 18:49:58,522 INFO pitch:0;roll:0;yaw:0;vgx:0;vgy:0;vgz:0;templ:78;temph:80;tof:10;h:0;bat:31;baro:147.21;time:0;agx:1.00;agy:-12.00;agz:-1000.00;
2020-10-13 18:49:58,624 INFO pitch:0;roll:0;yaw:0;vgx:0;vgy:0;vgz:0;templ:78;temph:80;tof:10;h:0;bat:31;baro:147.20;time:0;agx:1.00;agy:-11.00;agz:-1000.00;
2020-10-13 18:49:58,726 INFO pitch:0;roll:0;yaw:0;vgx:0;vgy:0;vgz:0;templ:78;temph:80;tof:10;h:0;bat:31;baro:147.20;time:0;agx:0.00;agy:-11.00;agz:-998.00;
2020-10-13 18:49:58,828 INFO pitch:0;roll:0;yaw:0;vgx:0;vgy:0;vgz:0;templ:78;temph:80;tof:10;h:0;bat:31;baro:147.21;time:0;agx:2.00;agy:-11.00;agz:-1001.00;
2020-10-13 18:49:58,930 INFO pitch:0;roll:0;yaw:0;vgx:0;vgy:0;vgz:0;templ:78;temph:80;tof:10;h:0;bat:31;baro:147.16;time:0;agx:0.00;agy:-11.00;agz:-999.00;
2020-10-13 18:49:59,032 INFO pitch:0;roll:0;yaw:0;vgx:0;vgy:0;vgz:0;templ:78;temph:80;tof:10;h:0;bat:31;baro:147.19;time:0;agx:0.00;agy:-12.00;agz:-1000.00;
2020-10-13 18:49:59,135 INFO pitch:0;roll:0;yaw:0;vgx:0;vgy:0;vgz:0;templ:78;temph:80;tof:10;h:0;bat:31;baro:147.18;time:0;agx:0.00;agy:-11.00;agz:-1000.00;
2020-10-13 18:49:59,236 INFO pitch:0;roll:0;yaw:0;vgx:0;vgy:0;vgz:0;templ:78;temph:80;tof:10;h:0;bat:31;baro:147.19;time:0;agx:1.00;agy:-10.00;agz:-998.00;
2020-10-13 18:49:59,339 INFO pitch:0;roll:0;yaw:0;vgx:0;vgy:0;vgz:0;templ:78;temph:80;tof:10;h:0;bat:31;baro:147.20;time:0;agx:2.00;agy:-12.00;agz:-998.00;
2020-10-13 18:49:59,390 INFO pitch:0;roll:0;yaw:0;vgx:0;vgy:0;vgz:0;templ:78;temph:80;tof:10;h:0;bat:31;baro:147.15;time:0;agx:2.00;agy:-11.00;agz:-1000.00;
2020-10-13 18:49:59,491 INFO pitch:0;roll:0;yaw:0;vgx:0;vgy:0;vgz:0;templ:78;temph:80;tof:10;h:0;bat:31;baro:147.22;time:0;agx:0.00;agy:-11.00;agz:-1003.00;
2020-10-13 18:49:59,644 INFO pitch:0;roll:0;yaw:0;vgx:0;vgy:0;vgz:0;templ:79;temph:80;tof:10;h:0;bat:31;baro:147.25;time:0;agx:2.00;agy:-10.00;agz:-998.00;
2020-10-13 18:49:59,695 INFO pitch:0;roll:0;yaw:0;vgx:0;vgy:0;vgz:0;templ:79;temph:80;tof:10;h:0;bat:31;baro:147.23;time:0;agx:1.00;agy:-11.00;agz:-997.00;
2020-10-13 18:49:59,798 INFO pitch:0;roll:0;yaw:0;vgx:0;vgy:0;vgz:0;templ:79;temph:80;tof:10;h:0;bat:31;baro:147.20;time:0;agx:1.00;agy:-10.00;agz:-997.00;
2020-10-13 18:49:59,900 INFO pitch:0;roll:0;yaw:0;vgx:0;vgy:0;vgz:0;templ:79;temph:80;tof:10;h:0;bat:31;baro:147.26;time:0;agx:0.00;agy:-11.00;agz:-1001.00;
2020-10-13 18:50:00,001 INFO pitch:0;roll:0;yaw:0;vgx:0;vgy:0;vgz:0;templ:79;temph:80;tof:10;h:0;bat:31;baro:147.25;time:0;agx:2.00;agy:-11.00;agz:-1000.00;
2020-10-13 18:50:00,104 INFO pitch:0;roll:0;yaw:0;vgx:0;vgy:0;vgz:0;templ:79;temph:80;tof:10;h:0;bat:31;baro:147.21;time:0;agx:1.00;agy:-12.00;agz:-997.00;
2020-10-13 18:50:00,206 INFO pitch:0;roll:0;yaw:0;vgx:0;vgy:0;vgz:0;templ:79;temph:80;tof:10;h:0;bat:31;baro:147.22;time:0;agx:1.00;agy:-12.00;agz:-1001.00;
2020-10-13 18:50:00,308 INFO pitch:0;roll:0;yaw:0;vgx:0;vgy:0;vgz:0;templ:79;temph:80;tof:10;h:0;bat:31;baro:147.18;time:0;agx:2.00;agy:-10.00;agz:-1000.00;
2020-10-13 18:50:00,410 INFO pitch:0;roll:0;yaw:0;vgx:0;vgy:0;vgz:0;templ:79;temph:80;tof:10;h:0;bat:31;baro:147.22;time:0;agx:1.00;agy:-9.00;agz:-1001.00;
2020-10-13 18:50:00,513 INFO pitch:0;roll:0;yaw:0;vgx:0;vgy:0;vgz:0;templ:79;temph:80;tof:10;h:0;bat:31;baro:147.28;time:0;agx:0.00;agy:-10.00;agz:-1000.00;
2020-10-13 18:50:00,615 INFO pitch:0;roll:0;yaw:0;vgx:0;vgy:0;vgz:0;templ:79;temph:80;tof:10;h:0;bat:31;baro:147.27;time:0;agx:0.00;agy:-12.00;agz:-999.00;
2020-10-13 18:50:00,718 INFO pitch:0;roll:0;yaw:0;vgx:0;vgy:0;vgz:0;templ:79;temph:80;tof:10;h:0;bat:31;baro:147.29;time:0;agx:0.00;agy:-12.00;agz:-999.00;
2020-10-13 18:50:00,819 INFO pitch:0;roll:0;yaw:0;vgx:0;vgy:0;vgz:0;templ:79;temph:80;tof:10;h:0;bat:31;baro:147.19;time:0;agx:0.00;agy:-10.00;agz:-999.00;
2020-10-13 18:50:00,920 INFO pitch:0;roll:0;yaw:0;vgx:0;vgy:0;vgz:0;templ:79;temph:80;tof:10;h:0;bat:31;baro:147.25;time:0;agx:2.00;agy:-11.00;agz:-1000.00;
2020-10-13 18:50:01,022 INFO pitch:0;roll:0;yaw:0;vgx:0;vgy:0;vgz:0;templ:79;temph:80;tof:10;h:0;bat:31;baro:147.24;time:0;agx:0.00;agy:-10.00;agz:-999.00;
2020-10-13 18:50:01,128 INFO pitch:0;roll:0;yaw:0;vgx:0;vgy:0;vgz:0;templ:79;temph:80;tof:10;h:0;bat:31;baro:147.21;time:0;agx:2.00;agy:-11.00;agz:-996.00;
2020-10-13 18:50:01,226 INFO pitch:0;roll:0;yaw:0;vgx:0;vgy:0;vgz:0;templ:79;temph:80;tof:10;h:0;bat:31;baro:147.23;time:0;agx:1.00;agy:-11.00;agz:-999.00;
2020-10-13 18:50:01,328 INFO pitch:0;roll:0;yaw:0;vgx:0;vgy:0;vgz:0;templ:79;temph:80;tof:10;h:0;bat:31;baro:147.24;time:0;agx:1.00;agy:-11.00;agz:-999.00;
2020-10-13 18:50:01,430 INFO pitch:0;roll:0;yaw:0;vgx:0;vgy:0;vgz:0;templ:79;temph:80;tof:10;h:0;bat:31;baro:147.24;time:0;agx:0.00;agy:-13.00;agz:-1000.00;
2020-10-13 18:50:01,532 INFO pitch:0;roll:0;yaw:0;vgx:0;vgy:0;vgz:0;templ:79;temph:80;tof:10;h:0;bat:31;baro:147.27;time:0;agx:1.00;agy:-11.00;agz:-1000.00;
2020-10-13 18:50:01,634 INFO pitch:0;roll:0;yaw:0;vgx:0;vgy:0;vgz:0;templ:78;temph:81;tof:10;h:0;bat:31;baro:147.22;time:0;agx:1.00;agy:-11.00;agz:-1000.00;
2020-10-13 18:50:01,736 INFO pitch:0;roll:0;yaw:0;vgx:0;vgy:0;vgz:0;templ:78;temph:81;tof:10;h:0;bat:31;baro:147.29;time:0;agx:2.00;agy:-12.00;agz:-999.00;
2020-10-13 18:50:01,838 INFO pitch:0;roll:0;yaw:0;vgx:0;vgy:0;vgz:0;templ:78;temph:81;tof:10;h:0;bat:31;baro:147.24;time:0;agx:2.00;agy:-11.00;agz:-1000.00;
2020-10-13 18:50:01,940 INFO pitch:0;roll:0;yaw:0;vgx:0;vgy:0;vgz:0;templ:78;temph:81;tof:10;h:0;bat:31;baro:147.16;time:0;agx:1.00;agy:-11.00;agz:-998.00;
2020-10-13 18:50:02,042 INFO pitch:0;roll:0;yaw:0;vgx:0;vgy:0;vgz:0;templ:78;temph:81;tof:10;h:0;bat:31;baro:147.26;time:0;agx:0.00;agy:-11.00;agz:-998.00;
2020-10-13 18:50:02,144 INFO pitch:0;roll:0;yaw:0;vgx:0;vgy:0;vgz:0;templ:78;temph:81;tof:10;h:0;bat:31;baro:147.21;time:0;agx:1.00;agy:-10.00;agz:-1001.00;
2020-10-13 18:50:02,246 INFO pitch:0;roll:0;yaw:0;vgx:0;vgy:0;vgz:0;templ:78;temph:81;tof:10;h:0;bat:31;baro:147.19;time:0;agx:2.00;agy:-10.00;agz:-999.00;
2020-10-13 18:50:02,348 INFO pitch:0;roll:0;yaw:0;vgx:0;vgy:0;vgz:0;templ:78;temph:81;tof:10;h:0;bat:31;baro:147.27;time:0;agx:0.00;agy:-11.00;agz:-1002.00;
2020-10-13 18:50:02,450 INFO pitch:0;roll:0;yaw:0;vgx:0;vgy:0;vgz:0;templ:78;temph:81;tof:10;h:0;bat:31;baro:147.20;time:0;agx:1.00;agy:-12.00;agz:-999.00;
2020-10-13 18:50:02,552 INFO pitch:0;roll:0;yaw:0;vgx:0;vgy:0;vgz:0;templ:78;temph:81;tof:10;h:0;bat:31;baro:147.24;time:0;agx:1.00;agy:-10.00;agz:-999.00;
2020-10-13 18:50:02,654 INFO pitch:0;roll:0;yaw:0;vgx:0;vgy:0;vgz:0;templ:79;temph:81;tof:10;h:0;bat:31;baro:147.27;time:0;agx:2.00;agy:-11.00;agz:-1001.00;
2020-10-13 18:50:02,756 INFO pitch:0;roll:0;yaw:0;vgx:0;vgy:0;vgz:0;templ:79;temph:81;tof:10;h:0;bat:31;baro:147.23;time:0;agx:1.00;agy:-10.00;agz:-999.00;
2020-10-13 18:50:02,858 INFO pitch:0;roll:0;yaw:0;vgx:0;vgy:0;vgz:0;templ:79;temph:81;tof:10;h:0;bat:30;baro:147.23;time:0;agx:2.00;agy:-13.00;agz:-997.00;
2020-10-13 18:50:02,960 INFO pitch:0;roll:0;yaw:0;vgx:0;vgy:0;vgz:0;templ:79;temph:81;tof:10;h:0;bat:30;baro:147.25;time:0;agx:1.00;agy:-10.00;agz:-999.00;
2020-10-13 18:50:03,012 INFO pitch:0;roll:0;yaw:0;vgx:0;vgy:0;vgz:0;templ:79;temph:81;tof:10;h:0;bat:30;baro:147.25;time:0;agx:1.00;agy:-10.00;agz:-1001.00;
2020-10-13 18:50:03,113 INFO pitch:0;roll:0;yaw:0;vgx:0;vgy:0;vgz:0;templ:79;temph:81;tof:10;h:0;bat:30;baro:147.21;time:0;agx:0.00;agy:-9.00;agz:-1000.00;
2020-10-13 18:50:03,215 INFO pitch:0;roll:0;yaw:0;vgx:0;vgy:0;vgz:0;templ:79;temph:81;tof:10;h:0;bat:30;baro:147.29;time:0;agx:2.00;agy:-12.00;agz:-1000.00;
2020-10-13 18:50:03,318 INFO pitch:0;roll:0;yaw:0;vgx:0;vgy:0;vgz:0;templ:79;temph:81;tof:10;h:0;bat:30;baro:147.24;time:0;agx:1.00;agy:-11.00;agz:-1001.00;
2020-10-13 18:50:03,419 INFO pitch:0;roll:0;yaw:0;vgx:0;vgy:0;vgz:0;templ:79;temph:81;tof:10;h:0;bat:30;baro:147.21;time:0;agx:1.00;agy:-10.00;agz:-999.00;
2020-10-13 18:50:05,766 INFO pitch:0;roll:0;yaw:0;vgx:0;vgy:0;vgz:0;templ:79;temph:81;tof:10;h:0;bat:30;baro:147.23;time:0;agx:0.00;agy:-10.00;agz:-1001.00;
2020-10-13 18:50:05,890 INFO pitch:0;roll:0;yaw:0;vgx:0;vgy:0;vgz:0;templ:79;temph:81;tof:10;h:0;bat:30;baro:147.19;time:0;agx:3.00;agy:-11.00;agz:-1001.00;
2020-10-13 18:50:05,970 INFO pitch:0;roll:0;yaw:0;vgx:0;vgy:0;vgz:0;templ:79;temph:81;tof:10;h:0;bat:30;baro:147.21;time:0;agx:1.00;agy:-10.00;agz:-999.00;
2020-10-13 18:50:06,072 INFO pitch:0;roll:0;yaw:0;vgx:0;vgy:0;vgz:0;templ:79;temph:81;tof:10;h:0;bat:30;baro:147.17;time:0;agx:-1.00;agy:-10.00;agz:-1000.00;
2020-10-13 18:50:06,174 INFO pitch:0;roll:0;yaw:0;vgx:0;vgy:0;vgz:0;templ:79;temph:81;tof:10;h:0;bat:30;baro:147.18;time:0;agx:2.00;agy:-10.00;agz:-1000.00;
2020-10-13 18:50:06,276 INFO pitch:0;roll:0;yaw:0;vgx:0;vgy:0;vgz:0;templ:79;temph:81;tof:10;h:0;bat:30;baro:147.20;time:0;agx:2.00;agy:-11.00;agz:-999.00;
2020-10-13 18:50:06,378 INFO pitch:0;roll:0;yaw:0;vgx:0;vgy:0;vgz:0;templ:79;temph:81;tof:10;h:0;bat:30;baro:147.22;time:0;agx:2.00;agy:-12.00;agz:-1001.00;
2020-10-13 18:50:06,480 INFO pitch:0;roll:0;yaw:0;vgx:0;vgy:0;vgz:0;templ:79;temph:81;tof:10;h:0;bat:30;baro:147.18;time:0;agx:2.00;agy:-10.00;agz:-1001.00;
2020-10-13 18:50:06,535 INFO pitch:0;roll:0;yaw:0;vgx:0;vgy:0;vgz:0;templ:79;temph:81;tof:10;h:0;bat:30;baro:147.17;time:0;agx:1.00;agy:-10.00;agz:-999.00;
2020-10-13 18:50:06,684 INFO pitch:0;roll:0;yaw:0;vgx:0;vgy:0;vgz:0;templ:79;temph:81;tof:10;h:0;bat:30;baro:147.14;time:0;agx:0.00;agy:-12.00;agz:-999.00;
2020-10-13 18:50:06,737 INFO pitch:0;roll:0;yaw:0;vgx:0;vgy:0;vgz:0;templ:79;temph:81;tof:10;h:0;bat:30;baro:147.15;time:0;agx:0.00;agy:-11.00;agz:-1000.00;
2020-10-13 18:50:06,839 INFO pitch:0;roll:0;yaw:0;vgx:0;vgy:0;vgz:0;templ:79;temph:81;tof:10;h:0;bat:30;baro:147.18;time:0;agx:1.00;agy:-10.00;agz:-998.00;
2020-10-13 18:50:06,940 INFO pitch:0;roll:0;yaw:0;vgx:0;vgy:0;vgz:0;templ:79;temph:81;tof:10;h:0;bat:30;baro:147.22;time:0;agx:2.00;agy:-11.00;agz:-1002.00;
2020-10-13 18:50:07,046 INFO pitch:0;roll:0;yaw:0;vgx:0;vgy:0;vgz:0;templ:79;temph:81;tof:10;h:0;bat:30;baro:147.18;time:0;agx:1.00;agy:-11.00;agz:-999.00;
2020-10-13 18:50:07,144 INFO pitch:0;roll:0;yaw:0;vgx:0;vgy:0;vgz:0;templ:79;temph:81;tof:10;h:0;bat:30;baro:147.13;time:0;agx:2.00;agy:-10.00;agz:-998.00;
2020-10-13 18:50:07,246 INFO pitch:0;roll:0;yaw:0;vgx:0;vgy:0;vgz:0;templ:79;temph:81;tof:10;h:0;bat:30;baro:147.12;time:0;agx:1.00;agy:-12.00;agz:-1002.00;
2020-10-13 18:50:07,348 INFO pitch:0;roll:0;yaw:0;vgx:0;vgy:0;vgz:0;templ:79;temph:81;tof:10;h:0;bat:30;baro:147.14;time:0;agx:0.00;agy:-12.00;agz:-1000.00;
2020-10-13 18:50:07,450 INFO pitch:0;roll:0;yaw:0;vgx:0;vgy:0;vgz:0;templ:79;temph:81;tof:10;h:0;bat:30;baro:147.13;time:0;agx:2.00;agy:-10.00;agz:-998.00;
2020-10-13 18:50:07,552 INFO pitch:0;roll:0;yaw:0;vgx:0;vgy:0;vgz:0;templ:79;temph:81;tof:10;h:0;bat:30;baro:147.12;time:0;agx:1.00;agy:-11.00;agz:-999.00;
2020-10-13 18:50:07,654 INFO pitch:0;roll:0;yaw:0;vgx:0;vgy:0;vgz:0;templ:79;temph:81;tof:10;h:0;bat:30;baro:147.14;time:0;agx:1.00;agy:-12.00;agz:-1002.00;
2020-10-13 18:50:07,756 INFO pitch:0;roll:0;yaw:0;vgx:0;vgy:0;vgz:0;templ:79;temph:81;tof:10;h:0;bat:30;baro:147.13;time:0;agx:1.00;agy:-11.00;agz:-997.00;
2020-10-13 18:50:07,858 INFO pitch:0;roll:0;yaw:0;vgx:0;vgy:0;vgz:0;templ:79;temph:81;tof:10;h:0;bat:30;baro:147.17;time:0;agx:0.00;agy:-10.00;agz:-999.00;
2020-10-13 18:50:07,960 INFO pitch:0;roll:0;yaw:0;vgx:0;vgy:0;vgz:0;templ:79;temph:81;tof:10;h:0;bat:30;baro:147.19;time:0;agx:1.00;agy:-11.00;agz:-999.00;
2020-10-13 18:50:08,062 INFO pitch:0;roll:0;yaw:0;vgx:0;vgy:0;vgz:0;templ:79;temph:81;tof:10;h:0;bat:30;baro:147.17;time:0;agx:1.00;agy:-9.00;agz:-998.00;
2020-10-13 18:50:08,166 INFO pitch:0;roll:0;yaw:0;vgx:0;vgy:0;vgz:0;templ:79;temph:81;tof:10;h:0;bat:30;baro:147.22;time:0;agx:1.00;agy:-10.00;agz:-997.00;
2020-10-13 18:50:08,266 INFO pitch:0;roll:0;yaw:0;vgx:0;vgy:0;vgz:0;templ:79;temph:81;tof:10;h:0;bat:30;baro:147.20;time:0;agx:0.00;agy:-9.00;agz:-1000.00;
2020-10-13 18:50:08,378 INFO pitch:0;roll:0;yaw:0;vgx:0;vgy:0;vgz:0;templ:79;temph:81;tof:10;h:0;bat:30;baro:147.18;time:0;agx:1.00;agy:-11.00;agz:-1001.00;
2020-10-13 18:50:08,470 INFO pitch:0;roll:0;yaw:0;vgx:0;vgy:0;vgz:0;templ:79;temph:81;tof:10;h:0;bat:30;baro:147.15;time:0;agx:1.00;agy:-10.00;agz:-1001.00;
2020-10-13 18:50:08,572 INFO pitch:0;roll:0;yaw:0;vgx:0;vgy:0;vgz:0;templ:79;temph:81;tof:10;h:0;bat:30;baro:147.16;time:0;agx:1.00;agy:-12.00;agz:-1000.00;
2020-10-13 18:50:08,674 INFO pitch:0;roll:0;yaw:0;vgx:0;vgy:0;vgz:0;templ:79;temph:81;tof:10;h:0;bat:30;baro:147.16;time:0;agx:0.00;agy:-9.00;agz:-998.00;
2020-10-13 18:50:08,776 INFO pitch:0;roll:0;yaw:0;vgx:0;vgy:0;vgz:0;templ:79;temph:81;tof:10;h:0;bat:30;baro:147.17;time:0;agx:0.00;agy:-9.00;agz:-1000.00;
2020-10-13 18:50:08,878 INFO pitch:0;roll:0;yaw:0;vgx:0;vgy:0;vgz:0;templ:79;temph:81;tof:10;h:0;bat:29;baro:147.22;time:0;agx:1.00;agy:-11.00;agz:-1000.00;
2020-10-13 18:50:08,981 INFO pitch:0;roll:0;yaw:0;vgx:0;vgy:0;vgz:0;templ:79;temph:81;tof:10;h:0;bat:29;baro:147.23;time:0;agx:1.00;agy:-10.00;agz:-997.00;
2020-10-13 18:50:09,082 INFO pitch:0;roll:0;yaw:0;vgx:0;vgy:0;vgz:0;templ:79;temph:81;tof:10;h:0;bat:29;baro:147.18;time:0;agx:1.00;agy:-11.00;agz:-1002.00;
2020-10-13 18:50:09,184 INFO pitch:0;roll:0;yaw:0;vgx:0;vgy:0;vgz:0;templ:79;temph:81;tof:10;h:0;bat:29;baro:147.22;time:0;agx:0.00;agy:-11.00;agz:-1000.00;
2020-10-13 18:50:09,286 INFO pitch:0;roll:0;yaw:0;vgx:0;vgy:0;vgz:0;templ:79;temph:81;tof:10;h:0;bat:29;baro:147.19;time:0;agx:1.00;agy:-11.00;agz:-1001.00;
2020-10-13 18:50:09,388 INFO pitch:0;roll:0;yaw:0;vgx:0;vgy:0;vgz:0;templ:79;temph:81;tof:10;h:0;bat:29;baro:147.17;time:0;agx:0.00;agy:-13.00;agz:-1000.00;
2020-10-13 18:50:09,490 INFO pitch:0;roll:0;yaw:0;vgx:0;vgy:0;vgz:0;templ:79;temph:81;tof:10;h:0;bat:29;baro:147.22;time:0;agx:0.00;agy:-11.00;agz:-999.00;
2020-10-13 18:50:09,592 INFO pitch:0;roll:0;yaw:0;vgx:0;vgy:0;vgz:0;templ:79;temph:81;tof:10;h:0;bat:29;baro:147.28;time:0;agx:1.00;agy:-11.00;agz:-1001.00;
2020-10-13 18:50:09,695 INFO pitch:0;roll:0;yaw:0;vgx:0;vgy:0;vgz:0;templ:80;temph:81;tof:10;h:0;bat:29;baro:147.24;time:0;agx:1.00;agy:-9.00;agz:-1000.00;
2020-10-13 18:50:09,796 INFO pitch:0;roll:0;yaw:0;vgx:0;vgy:0;vgz:0;templ:80;temph:81;tof:10;h:0;bat:29;baro:147.22;time:0;agx:2.00;agy:-10.00;agz:-1001.00;
2020-10-13 18:50:09,901 INFO pitch:0;roll:0;yaw:0;vgx:0;vgy:0;vgz:0;templ:80;temph:81;tof:10;h:0;bat:29;baro:147.20;time:0;agx:2.00;agy:-11.00;agz:-1000.00;
2020-10-13 18:50:10,003 INFO pitch:0;roll:0;yaw:0;vgx:0;vgy:0;vgz:0;templ:80;temph:81;tof:10;h:0;bat:29;baro:147.20;time:0;agx:2.00;agy:-10.00;agz:-999.00;
2020-10-13 18:50:10,102 INFO pitch:0;roll:0;yaw:0;vgx:0;vgy:0;vgz:0;templ:80;temph:81;tof:10;h:0;bat:29;baro:147.23;time:0;agx:2.00;agy:-12.00;agz:-999.00;
2020-10-13 18:50:10,153 INFO pitch:0;roll:0;yaw:0;vgx:0;vgy:0;vgz:0;templ:80;temph:81;tof:10;h:0;bat:29;baro:147.21;time:0;agx:0.00;agy:-11.00;agz:-1000.00;
2020-10-13 18:50:10,255 INFO pitch:0;roll:0;yaw:0;vgx:0;vgy:0;vgz:0;templ:80;temph:81;tof:10;h:0;bat:29;baro:147.22;time:0;agx:1.00;agy:-11.00;agz:-998.00;
2020-10-13 18:50:10,357 INFO pitch:0;roll:0;yaw:0;vgx:0;vgy:0;vgz:0;templ:80;temph:81;tof:10;h:0;bat:29;baro:147.21;time:0;agx:0.00;agy:-12.00;agz:-1000.00;
2020-10-13 18:50:10,459 INFO pitch:0;roll:0;yaw:0;vgx:0;vgy:0;vgz:0;templ:80;temph:81;tof:10;h:0;bat:29;baro:147.21;time:0;agx:1.00;agy:-12.00;agz:-1000.00;
2020-10-13 18:50:10,561 INFO pitch:0;roll:0;yaw:0;vgx:0;vgy:0;vgz:0;templ:80;temph:81;tof:10;h:0;bat:29;baro:147.17;time:0;agx:1.00;agy:-11.00;agz:-1001.00;
2020-10-13 18:50:10,666 INFO pitch:0;roll:0;yaw:0;vgx:0;vgy:0;vgz:0;templ:79;temph:81;tof:10;h:0;bat:29;baro:147.23;time:0;agx:1.00;agy:-11.00;agz:-999.00;
2020-10-13 18:50:10,766 INFO pitch:0;roll:0;yaw:0;vgx:0;vgy:0;vgz:0;templ:79;temph:81;tof:10;h:0;bat:29;baro:147.19;time:0;agx:1.00;agy:-11.00;agz:-1000.00;
2020-10-13 18:50:10,870 INFO pitch:0;roll:0;yaw:0;vgx:0;vgy:0;vgz:0;templ:79;temph:81;tof:10;h:0;bat:29;baro:147.19;time:0;agx:1.00;agy:-10.00;agz:-999.00;
2020-10-13 18:50:10,971 INFO pitch:0;roll:0;yaw:0;vgx:0;vgy:0;vgz:0;templ:79;temph:81;tof:10;h:0;bat:29;baro:147.19;time:0;agx:2.00;agy:-11.00;agz:-998.00;
2020-10-13 18:50:11,072 INFO pitch:0;roll:0;yaw:0;vgx:0;vgy:0;vgz:0;templ:79;temph:81;tof:10;h:0;bat:29;baro:147.18;time:0;agx:2.00;agy:-9.00;agz:-1000.00;
2020-10-13 18:50:11,175 INFO pitch:0;roll:0;yaw:0;vgx:0;vgy:0;vgz:0;templ:79;temph:81;tof:10;h:0;bat:29;baro:147.17;time:0;agx:1.00;agy:-10.00;agz:-999.00;
2020-10-13 18:50:11,279 INFO pitch:0;roll:0;yaw:0;vgx:0;vgy:0;vgz:0;templ:79;temph:81;tof:10;h:0;bat:29;baro:147.13;time:0;agx:0.00;agy:-11.00;agz:-997.00;
2020-10-13 18:50:11,379 INFO pitch:0;roll:0;yaw:0;vgx:0;vgy:0;vgz:0;templ:79;temph:81;tof:10;h:0;bat:29;baro:147.19;time:0;agx:0.00;agy:-11.00;agz:-999.00;
2020-10-13 18:50:11,481 INFO pitch:0;roll:0;yaw:0;vgx:0;vgy:0;vgz:0;templ:79;temph:81;tof:10;h:0;bat:29;baro:147.19;time:0;agx:0.00;agy:-10.00;agz:-1000.00;
2020-10-13 18:50:11,583 INFO pitch:0;roll:0;yaw:0;vgx:0;vgy:0;vgz:0;templ:79;temph:81;tof:10;h:0;bat:29;baro:147.18;time:0;agx:1.00;agy:-12.00;agz:-999.00;
2020-10-13 18:50:11,685 INFO pitch:0;roll:0;yaw:0;vgx:0;vgy:0;vgz:0;templ:80;temph:82;tof:10;h:0;bat:29;baro:147.21;time:0;agx:1.00;agy:-12.00;agz:-1000.00;
2020-10-13 18:50:11,787 INFO pitch:0;roll:0;yaw:0;vgx:0;vgy:0;vgz:0;templ:80;temph:82;tof:10;h:0;bat:29;baro:147.19;time:0;agx:-2.00;agy:-6.00;agz:-996.00;
2020-10-13 18:50:11,890 INFO pitch:0;roll:0;yaw:0;vgx:0;vgy:0;vgz:0;templ:80;temph:82;tof:10;h:0;bat:29;baro:147.12;time:0;agx:0.00;agy:-10.00;agz:-1001.00;
2020-10-13 18:50:11,991 INFO pitch:0;roll:0;yaw:0;vgx:0;vgy:0;vgz:0;templ:80;temph:82;tof:10;h:0;bat:29;baro:147.22;time:0;agx:0.00;agy:-13.00;agz:-999.00;
2020-10-13 18:50:12,093 INFO pitch:0;roll:0;yaw:0;vgx:0;vgy:0;vgz:0;templ:80;temph:82;tof:10;h:0;bat:29;baro:147.17;time:0;agx:1.00;agy:-11.00;agz:-1000.00;
2020-10-13 18:50:12,195 INFO pitch:0;roll:0;yaw:0;vgx:0;vgy:0;vgz:0;templ:80;temph:82;tof:10;h:0;bat:29;baro:147.13;time:0;agx:1.00;agy:-11.00;agz:-998.00;
2020-10-13 18:50:12,297 INFO pitch:0;roll:0;yaw:0;vgx:0;vgy:0;vgz:0;templ:80;temph:82;tof:10;h:0;bat:29;baro:147.17;time:0;agx:0.00;agy:-10.00;agz:-999.00;
2020-10-13 18:50:12,400 INFO pitch:0;roll:0;yaw:0;vgx:0;vgy:0;vgz:0;templ:80;temph:82;tof:10;h:0;bat:29;baro:147.13;time:0;agx:0.00;agy:-11.00;agz:-1000.00;
2020-10-13 18:50:12,504 INFO pitch:0;roll:0;yaw:0;vgx:0;vgy:0;vgz:0;templ:80;temph:82;tof:10;h:0;bat:29;baro:147.12;time:0;agx:2.00;agy:-11.00;agz:-1000.00;
2020-10-13 18:50:12,606 INFO pitch:0;roll:0;yaw:0;vgx:0;vgy:0;vgz:0;templ:80;temph:82;tof:10;h:0;bat:29;baro:147.12;time:0;agx:1.00;agy:-10.00;agz:-999.00;
2020-10-13 18:50:12,705 INFO pitch:0;roll:0;yaw:0;vgx:0;vgy:0;vgz:0;templ:80;temph:82;tof:10;h:0;bat:29;baro:147.15;time:0;agx:0.00;agy:-11.00;agz:-1000.00;
2020-10-13 18:50:12,807 INFO pitch:0;roll:0;yaw:0;vgx:0;vgy:0;vgz:0;templ:80;temph:82;tof:10;h:0;bat:29;baro:147.13;time:0;agx:2.00;agy:-13.00;agz:-998.00;
2020-10-13 18:50:12,909 INFO pitch:0;roll:0;yaw:0;vgx:0;vgy:0;vgz:0;templ:80;temph:82;tof:10;h:0;bat:29;baro:147.11;time:0;agx:0.00;agy:-12.00;agz:-999.00;
2020-10-13 18:50:13,011 INFO pitch:0;roll:0;yaw:0;vgx:0;vgy:0;vgz:0;templ:80;temph:82;tof:10;h:0;bat:29;baro:147.11;time:0;agx:2.00;agy:-9.00;agz:-1001.00;
2020-10-13 18:50:13,113 INFO pitch:0;roll:0;yaw:0;vgx:0;vgy:0;vgz:0;templ:80;temph:82;tof:10;h:0;bat:29;baro:147.16;time:0;agx:1.00;agy:-13.00;agz:-1000.00;
2020-10-13 18:50:13,169 INFO pitch:0;roll:0;yaw:0;vgx:0;vgy:0;vgz:0;templ:80;temph:82;tof:10;h:0;bat:29;baro:147.15;time:0;agx:0.00;agy:-12.00;agz:-1000.00;
2020-10-13 18:50:13,271 INFO pitch:0;roll:0;yaw:0;vgx:0;vgy:0;vgz:0;templ:80;temph:82;tof:10;h:0;bat:29;baro:147.14;time:0;agx:1.00;agy:-10.00;agz:-998.00;
2020-10-13 18:50:13,373 INFO pitch:0;roll:0;yaw:0;vgx:0;vgy:0;vgz:0;templ:80;temph:82;tof:10;h:0;bat:29;baro:147.17;time:0;agx:1.00;agy:-10.00;agz:-1000.00;
2020-10-13 18:50:13,470 INFO pitch:0;roll:0;yaw:0;vgx:0;vgy:0;vgz:0;templ:80;temph:82;tof:10;h:0;bat:29;baro:147.17;time:0;agx:1.00;agy:-9.00;agz:-998.00;
2020-10-13 18:50:13,576 INFO pitch:0;roll:0;yaw:0;vgx:0;vgy:0;vgz:0;templ:80;temph:82;tof:10;h:0;bat:29;baro:147.19;time:0;agx:0.00;agy:-10.00;agz:-999.00;
2020-10-13 18:50:13,674 INFO pitch:0;roll:0;yaw:0;vgx:0;vgy:0;vgz:0;templ:80;temph:82;tof:10;h:0;bat:29;baro:147.20;time:0;agx:1.00;agy:-11.00;agz:-998.00;
2020-10-13 18:50:13,776 INFO pitch:0;roll:0;yaw:0;vgx:0;vgy:0;vgz:0;templ:80;temph:82;tof:10;h:0;bat:29;baro:147.20;time:0;agx:2.00;agy:-10.00;agz:-999.00;
2020-10-13 18:50:13,878 INFO pitch:0;roll:0;yaw:0;vgx:0;vgy:0;vgz:0;templ:80;temph:82;tof:10;h:0;bat:29;baro:147.19;time:0;agx:0.00;agy:-10.00;agz:-999.00;
2020-10-13 18:50:13,980 INFO pitch:0;roll:0;yaw:0;vgx:0;vgy:0;vgz:0;templ:80;temph:82;tof:10;h:0;bat:29;baro:147.23;time:0;agx:1.00;agy:-12.00;agz:-1000.00;
2020-10-13 18:50:14,083 INFO pitch:0;roll:0;yaw:0;vgx:0;vgy:0;vgz:0;templ:80;temph:82;tof:10;h:0;bat:29;baro:147.21;time:0;agx:1.00;agy:-12.00;agz:-1000.00;
2020-10-13 18:50:14,185 INFO pitch:0;roll:0;yaw:0;vgx:0;vgy:0;vgz:0;templ:80;temph:82;tof:10;h:0;bat:29;baro:147.18;time:0;agx:1.00;agy:-12.00;agz:-1000.00;
2020-10-13 18:50:14,286 INFO pitch:0;roll:0;yaw:0;vgx:0;vgy:0;vgz:0;templ:80;temph:82;tof:10;h:0;bat:29;baro:147.21;time:0;agx:1.00;agy:-11.00;agz:-1002.00;
2020-10-13 18:50:14,389 INFO pitch:0;roll:0;yaw:0;vgx:0;vgy:0;vgz:0;templ:80;temph:82;tof:10;h:0;bat:29;baro:147.19;time:0;agx:0.00;agy:-12.00;agz:-1000.00;
2020-10-13 18:50:14,491 INFO pitch:0;roll:0;yaw:0;vgx:0;vgy:0;vgz:0;templ:80;temph:82;tof:10;h:0;bat:29;baro:147.24;time:0;agx:0.00;agy:-10.00;agz:-1000.00;
2020-10-13 18:50:14,594 INFO pitch:0;roll:0;yaw:0;vgx:0;vgy:0;vgz:0;templ:80;temph:82;tof:10;h:0;bat:29;baro:147.22;time:0;agx:0.00;agy:-11.00;agz:-999.00;
2020-10-13 18:50:14,694 INFO pitch:0;roll:0;yaw:0;vgx:0;vgy:0;vgz:0;templ:80;temph:82;tof:10;h:0;bat:29;baro:147.24;time:0;agx:0.00;agy:-11.00;agz:-999.00;
2020-10-13 18:50:14,797 INFO pitch:0;roll:0;yaw:0;vgx:0;vgy:0;vgz:0;templ:80;temph:82;tof:10;h:0;bat:28;baro:147.16;time:0;agx:0.00;agy:-11.00;agz:-999.00;
2020-10-13 18:50:14,903 INFO pitch:0;roll:0;yaw:0;vgx:0;vgy:0;vgz:0;templ:80;temph:82;tof:10;h:0;bat:28;baro:147.18;time:0;agx:1.00;agy:-12.00;agz:-1001.00;
2020-10-13 18:50:15,005 INFO pitch:0;roll:0;yaw:0;vgx:0;vgy:0;vgz:0;templ:80;temph:82;tof:10;h:0;bat:28;baro:147.16;time:0;agx:0.00;agy:-11.00;agz:-999.00;
2020-10-13 18:50:15,103 INFO pitch:0;roll:0;yaw:0;vgx:0;vgy:0;vgz:0;templ:80;temph:82;tof:10;h:0;bat:28;baro:147.18;time:0;agx:1.00;agy:-10.00;agz:-1001.00;
2020-10-13 18:50:15,211 INFO pitch:0;roll:0;yaw:0;vgx:0;vgy:0;vgz:0;templ:80;temph:82;tof:10;h:0;bat:28;baro:147.22;time:0;agx:0.00;agy:-12.00;agz:-1001.00;
2020-10-13 18:50:15,307 INFO pitch:0;roll:0;yaw:0;vgx:0;vgy:0;vgz:0;templ:80;temph:82;tof:10;h:0;bat:28;baro:147.20;time:0;agx:1.00;agy:-10.00;agz:-1001.00;
2020-10-13 18:50:15,409 INFO pitch:0;roll:0;yaw:0;vgx:0;vgy:0;vgz:0;templ:80;temph:82;tof:10;h:0;bat:28;baro:147.16;time:0;agx:2.00;agy:-11.00;agz:-999.00;
2020-10-13 18:50:15,511 INFO pitch:0;roll:0;yaw:0;vgx:0;vgy:0;vgz:0;templ:80;temph:82;tof:10;h:0;bat:28;baro:147.20;time:0;agx:1.00;agy:-11.00;agz:-1001.00;
2020-10-13 18:50:15,613 INFO pitch:0;roll:0;yaw:0;vgx:0;vgy:0;vgz:0;templ:80;temph:82;tof:10;h:0;bat:28;baro:147.22;time:0;agx:1.00;agy:-10.00;agz:-1001.00;
2020-10-13 18:50:15,715 INFO pitch:0;roll:0;yaw:0;vgx:0;vgy:0;vgz:0;templ:80;temph:82;tof:10;h:0;bat:28;baro:147.26;time:0;agx:1.00;agy:-11.00;agz:-1002.00;
2020-10-13 18:50:15,817 INFO pitch:0;roll:0;yaw:0;vgx:0;vgy:0;vgz:0;templ:80;temph:82;tof:10;h:0;bat:28;baro:147.22;time:0;agx:1.00;agy:-11.00;agz:-998.00;
2020-10-13 18:50:15,919 INFO pitch:0;roll:0;yaw:0;vgx:0;vgy:0;vgz:0;templ:80;temph:82;tof:10;h:0;bat:28;baro:147.21;time:0;agx:0.00;agy:-10.00;agz:-998.00;
2020-10-13 18:50:16,021 INFO pitch:0;roll:0;yaw:0;vgx:0;vgy:0;vgz:0;templ:80;temph:82;tof:10;h:0;bat:28;baro:147.26;time:0;agx:0.00;agy:-10.00;agz:-1004.00;
2020-10-13 18:50:16,123 INFO pitch:0;roll:0;yaw:0;vgx:0;vgy:0;vgz:0;templ:80;temph:82;tof:10;h:0;bat:28;baro:147.23;time:0;agx:1.00;agy:-11.00;agz:-1000.00;
2020-10-13 18:50:16,225 INFO pitch:0;roll:0;yaw:0;vgx:0;vgy:0;vgz:0;templ:80;temph:82;tof:10;h:0;bat:28;baro:147.29;time:0;agx:1.00;agy:-10.00;agz:-999.00;
2020-10-13 18:50:16,328 INFO pitch:0;roll:0;yaw:0;vgx:0;vgy:0;vgz:0;templ:80;temph:82;tof:10;h:0;bat:28;baro:147.28;time:0;agx:1.00;agy:-11.00;agz:-999.00;
2020-10-13 18:50:16,430 INFO pitch:0;roll:0;yaw:0;vgx:0;vgy:0;vgz:0;templ:80;temph:82;tof:10;h:0;bat:28;baro:147.23;time:0;agx:0.00;agy:-11.00;agz:-1001.00;
2020-10-13 18:50:16,480 INFO pitch:0;roll:0;yaw:0;vgx:0;vgy:0;vgz:0;templ:80;temph:82;tof:10;h:0;bat:28;baro:147.28;time:0;agx:2.00;agy:-9.00;agz:-998.00;
2020-10-13 18:50:16,582 INFO pitch:0;roll:0;yaw:0;vgx:0;vgy:0;vgz:0;templ:80;temph:82;tof:10;h:0;bat:28;baro:147.25;time:0;agx:2.00;agy:-11.00;agz:-998.00;
2020-10-13 18:50:16,684 INFO pitch:0;roll:0;yaw:0;vgx:0;vgy:0;vgz:0;templ:81;temph:82;tof:10;h:0;bat:28;baro:147.24;time:0;agx:0.00;agy:-11.00;agz:-1001.00;
2020-10-13 18:50:16,786 INFO pitch:0;roll:0;yaw:0;vgx:0;vgy:0;vgz:0;templ:81;temph:82;tof:10;h:0;bat:28;baro:147.25;time:0;agx:1.00;agy:-12.00;agz:-997.00;
2020-10-13 18:50:16,888 INFO pitch:0;roll:0;yaw:0;vgx:0;vgy:0;vgz:0;templ:81;temph:82;tof:10;h:0;bat:28;baro:147.26;time:0;agx:1.00;agy:-11.00;agz:-995.00;
2020-10-13 18:50:16,990 INFO pitch:0;roll:0;yaw:0;vgx:0;vgy:0;vgz:0;templ:81;temph:82;tof:10;h:0;bat:28;baro:147.25;time:0;agx:2.00;agy:-10.00;agz:-1001.00;
2020-10-13 18:50:17,092 INFO pitch:0;roll:0;yaw:0;vgx:0;vgy:0;vgz:0;templ:81;temph:82;tof:10;h:0;bat:28;baro:147.22;time:0;agx:2.00;agy:-10.00;agz:-999.00;
2020-10-13 18:50:17,194 INFO pitch:0;roll:0;yaw:0;vgx:0;vgy:0;vgz:0;templ:81;temph:82;tof:10;h:0;bat:28;baro:147.23;time:0;agx:1.00;agy:-10.00;agz:-998.00;
2020-10-13 18:50:17,297 INFO pitch:0;roll:0;yaw:0;vgx:0;vgy:0;vgz:0;templ:81;temph:82;tof:10;h:0;bat:28;baro:147.21;time:0;agx:1.00;agy:-11.00;agz:-1000.00;
2020-10-13 18:50:17,402 INFO pitch:0;roll:0;yaw:0;vgx:0;vgy:0;vgz:0;templ:81;temph:82;tof:10;h:0;bat:28;baro:147.21;time:0;agx:2.00;agy:-12.00;agz:-1000.00;
2020-10-13 18:50:17,506 INFO pitch:0;roll:0;yaw:0;vgx:0;vgy:0;vgz:0;templ:81;temph:82;tof:10;h:0;bat:28;baro:147.21;time:0;agx:0.00;agy:-11.00;agz:-1002.00;
2020-10-13 18:50:17,607 INFO pitch:0;roll:0;yaw:0;vgx:0;vgy:0;vgz:0;templ:81;temph:82;tof:10;h:0;bat:28;baro:147.26;time:0;agx:1.00;agy:-11.00;agz:-999.00;
2020-10-13 18:50:17,710 INFO pitch:0;roll:0;yaw:0;vgx:0;vgy:0;vgz:0;templ:80;temph:82;tof:10;h:0;bat:28;baro:147.22;time:0;agx:2.00;agy:-11.00;agz:-1001.00;
2020-10-13 18:50:17,808 INFO pitch:0;roll:0;yaw:0;vgx:0;vgy:0;vgz:0;templ:80;temph:82;tof:10;h:0;bat:28;baro:147.22;time:0;agx:0.00;agy:-11.00;agz:-998.00;
2020-10-13 18:50:17,911 INFO pitch:0;roll:0;yaw:0;vgx:0;vgy:0;vgz:0;templ:80;temph:82;tof:10;h:0;bat:28;baro:147.21;time:0;agx:1.00;agy:-12.00;agz:-999.00;
2020-10-13 18:50:18,013 INFO pitch:0;roll:0;yaw:0;vgx:0;vgy:0;vgz:0;templ:80;temph:82;tof:10;h:0;bat:28;baro:147.24;time:0;agx:1.00;agy:-12.00;agz:-1000.00;
2020-10-13 18:50:18,115 INFO pitch:0;roll:0;yaw:0;vgx:0;vgy:0;vgz:0;templ:80;temph:82;tof:10;h:0;bat:28;baro:147.24;time:0;agx:2.00;agy:-11.00;agz:-999.00;
2020-10-13 18:50:18,217 INFO pitch:0;roll:0;yaw:0;vgx:0;vgy:0;vgz:0;templ:80;temph:82;tof:10;h:0;bat:28;baro:147.25;time:0;agx:1.00;agy:-11.00;agz:-998.00;
2020-10-13 18:50:18,318 INFO pitch:0;roll:0;yaw:0;vgx:0;vgy:0;vgz:0;templ:80;temph:82;tof:10;h:0;bat:28;baro:147.25;time:0;agx:2.00;agy:-12.00;agz:-1002.00;
2020-10-13 18:50:18,420 INFO pitch:0;roll:0;yaw:0;vgx:0;vgy:0;vgz:0;templ:80;temph:82;tof:10;h:0;bat:28;baro:147.20;time:0;agx:2.00;agy:-12.00;agz:-1001.00;
2020-10-13 18:50:18,522 INFO pitch:0;roll:0;yaw:0;vgx:0;vgy:0;vgz:0;templ:80;temph:82;tof:10;h:0;bat:28;baro:147.26;time:0;agx:2.00;agy:-10.00;agz:-1000.00;
2020-10-13 18:50:18,624 INFO pitch:0;roll:0;yaw:0;vgx:0;vgy:0;vgz:0;templ:80;temph:82;tof:10;h:0;bat:28;baro:147.23;time:0;agx:0.00;agy:-11.00;agz:-1000.00;
2020-10-13 18:50:18,726 INFO pitch:0;roll:0;yaw:0;vgx:0;vgy:0;vgz:0;templ:81;temph:82;tof:10;h:0;bat:28;baro:147.18;time:0;agx:0.00;agy:-11.00;agz:-998.00;
2020-10-13 18:50:18,828 INFO pitch:0;roll:0;yaw:0;vgx:0;vgy:0;vgz:0;templ:81;temph:82;tof:10;h:0;bat:28;baro:147.20;time:0;agx:1.00;agy:-8.00;agz:-999.00;
2020-10-13 18:50:18,930 INFO pitch:0;roll:0;yaw:0;vgx:0;vgy:0;vgz:0;templ:81;temph:82;tof:10;h:0;bat:28;baro:147.19;time:0;agx:1.00;agy:-10.00;agz:-1000.00;
2020-10-13 18:50:19,032 INFO pitch:0;roll:0;yaw:0;vgx:0;vgy:0;vgz:0;templ:81;temph:82;tof:10;h:0;bat:28;baro:147.24;time:0;agx:0.00;agy:-11.00;agz:-1001.00;
2020-10-13 18:50:19,135 INFO pitch:0;roll:0;yaw:0;vgx:0;vgy:0;vgz:0;templ:81;temph:82;tof:10;h:0;bat:28;baro:147.24;time:0;agx:2.00;agy:-11.00;agz:-1000.00;
2020-10-13 18:50:19,238 INFO pitch:0;roll:0;yaw:0;vgx:0;vgy:0;vgz:0;templ:81;temph:82;tof:10;h:0;bat:28;baro:147.24;time:0;agx:2.00;agy:-11.00;agz:-999.00;
2020-10-13 18:50:19,340 INFO pitch:0;roll:0;yaw:0;vgx:0;vgy:0;vgz:0;templ:81;temph:82;tof:10;h:0;bat:28;baro:147.25;time:0;agx:1.00;agy:-10.00;agz:-1000.00;
2020-10-13 18:50:19,440 INFO pitch:0;roll:0;yaw:0;vgx:0;vgy:0;vgz:0;templ:81;temph:82;tof:10;h:0;bat:28;baro:147.25;time:0;agx:2.00;agy:-9.00;agz:-998.00;
2020-10-13 18:50:19,542 INFO pitch:0;roll:0;yaw:0;vgx:0;vgy:0;vgz:0;templ:81;temph:82;tof:10;h:0;bat:28;baro:147.23;time:0;agx:1.00;agy:-13.00;agz:-999.00;
2020-10-13 18:50:19,644 INFO pitch:0;roll:0;yaw:0;vgx:0;vgy:0;vgz:0;templ:81;temph:82;tof:10;h:0;bat:28;baro:147.25;time:0;agx:1.00;agy:-11.00;agz:-1001.00;
2020-10-13 18:50:19,746 INFO pitch:0;roll:0;yaw:0;vgx:0;vgy:0;vgz:0;templ:81;temph:82;tof:10;h:0;bat:28;baro:147.17;time:0;agx:1.00;agy:-12.00;agz:-1001.00;
2020-10-13 18:50:19,848 INFO pitch:0;roll:0;yaw:0;vgx:0;vgy:0;vgz:0;templ:81;temph:82;tof:10;h:0;bat:28;baro:147.18;time:0;agx:1.00;agy:-11.00;agz:-998.00;
2020-10-13 18:50:19,950 INFO pitch:0;roll:0;yaw:0;vgx:0;vgy:0;vgz:0;templ:81;temph:82;tof:10;h:0;bat:28;baro:147.19;time:0;agx:0.00;agy:-12.00;agz:-999.00;
2020-10-13 18:50:20,003 INFO pitch:0;roll:0;yaw:0;vgx:0;vgy:0;vgz:0;templ:81;temph:82;tof:10;h:0;bat:28;baro:147.22;time:0;agx:2.00;agy:-12.00;agz:-996.00;
2020-10-13 18:50:20,103 INFO pitch:0;roll:0;yaw:0;vgx:0;vgy:0;vgz:0;templ:81;temph:82;tof:10;h:0;bat:28;baro:147.21;time:0;agx:2.00;agy:-10.00;agz:-1000.00;
2020-10-13 18:50:20,209 INFO pitch:0;roll:0;yaw:0;vgx:0;vgy:0;vgz:0;templ:81;temph:82;tof:10;h:0;bat:28;baro:147.22;time:0;agx:2.00;agy:-11.00;agz:-1001.00;
2020-10-13 18:50:20,310 INFO pitch:0;roll:0;yaw:0;vgx:0;vgy:0;vgz:0;templ:81;temph:82;tof:10;h:0;bat:28;baro:147.24;time:0;agx:1.00;agy:-11.00;agz:-1000.00;
2020-10-13 18:50:20,409 INFO pitch:0;roll:0;yaw:0;vgx:0;vgy:0;vgz:0;templ:81;temph:82;tof:10;h:0;bat:28;baro:147.18;time:0;agx:0.00;agy:-12.00;agz:-1000.00;
2020-10-13 18:50:20,511 INFO pitch:0;roll:0;yaw:0;vgx:0;vgy:0;vgz:0;templ:81;temph:82;tof:10;h:0;bat:28;baro:147.24;time:0;agx:1.00;agy:-11.00;agz:-1000.00;
2020-10-13 18:50:20,613 INFO pitch:0;roll:0;yaw:0;vgx:0;vgy:0;vgz:0;templ:81;temph:82;tof:10;h:0;bat:28;baro:147.22;time:0;agx:0.00;agy:-10.00;agz:-998.00;
2020-10-13 18:50:20,715 INFO pitch:0;roll:0;yaw:0;vgx:0;vgy:0;vgz:0;templ:81;temph:82;tof:10;h:0;bat:28;baro:147.20;time:0;agx:1.00;agy:-11.00;agz:-1000.00;
2020-10-13 18:50:20,818 INFO pitch:0;roll:0;yaw:0;vgx:0;vgy:0;vgz:0;templ:81;temph:82;tof:10;h:0;bat:28;baro:147.17;time:0;agx:2.00;agy:-10.00;agz:-998.00;
2020-10-13 18:50:20,920 INFO pitch:0;roll:0;yaw:0;vgx:0;vgy:0;vgz:0;templ:81;temph:82;tof:10;h:0;bat:28;baro:147.22;time:0;agx:3.00;agy:-11.00;agz:-1000.00;
2020-10-13 18:50:21,022 INFO pitch:0;roll:0;yaw:0;vgx:0;vgy:0;vgz:0;templ:81;temph:82;tof:10;h:0;bat:28;baro:147.22;time:0;agx:1.00;agy:-12.00;agz:-996.00;
2020-10-13 18:50:21,124 INFO pitch:0;roll:0;yaw:0;vgx:0;vgy:0;vgz:0;templ:81;temph:82;tof:10;h:0;bat:28;baro:147.17;time:0;agx:1.00;agy:-11.00;agz:-1000.00;
2020-10-13 18:50:21,226 INFO pitch:0;roll:0;yaw:0;vgx:0;vgy:0;vgz:0;templ:81;temph:82;tof:10;h:0;bat:28;baro:147.20;time:0;agx:1.00;agy:-14.00;agz:-999.00;
2020-10-13 18:50:21,328 INFO pitch:0;roll:0;yaw:0;vgx:0;vgy:0;vgz:0;templ:81;temph:82;tof:10;h:0;bat:28;baro:147.20;time:0;agx:0.00;agy:-12.00;agz:-998.00;
2020-10-13 18:50:21,430 INFO pitch:0;roll:0;yaw:0;vgx:0;vgy:0;vgz:0;templ:81;temph:82;tof:10;h:0;bat:28;baro:147.20;time:0;agx:1.00;agy:-10.00;agz:-999.00;
2020-10-13 18:50:21,535 INFO pitch:0;roll:0;yaw:0;vgx:0;vgy:0;vgz:0;templ:81;temph:82;tof:10;h:0;bat:28;baro:147.24;time:0;agx:1.00;agy:-11.00;agz:-997.00;
2020-10-13 18:50:21,637 INFO pitch:0;roll:0;yaw:0;vgx:0;vgy:0;vgz:0;templ:81;temph:82;tof:10;h:0;bat:28;baro:147.22;time:0;agx:1.00;agy:-11.00;agz:-998.00;
2020-10-13 18:50:21,742 INFO pitch:0;roll:0;yaw:0;vgx:0;vgy:0;vgz:0;templ:81;temph:83;tof:10;h:0;bat:28;baro:147.15;time:0;agx:0.00;agy:-11.00;agz:-1000.00;
2020-10-13 18:50:21,841 INFO pitch:0;roll:0;yaw:0;vgx:0;vgy:0;vgz:0;templ:81;temph:83;tof:10;h:0;bat:28;baro:147.22;time:0;agx:1.00;agy:-11.00;agz:-1000.00;
2020-10-13 18:50:21,942 INFO pitch:0;roll:0;yaw:0;vgx:0;vgy:0;vgz:0;templ:81;temph:83;tof:10;h:0;bat:28;baro:147.20;time:0;agx:1.00;agy:-11.00;agz:-999.00;
2020-10-13 18:50:22,044 INFO pitch:0;roll:0;yaw:0;vgx:0;vgy:0;vgz:0;templ:81;temph:83;tof:10;h:0;bat:28;baro:147.22;time:0;agx:1.00;agy:-11.00;agz:-1001.00;
2020-10-13 18:50:22,146 INFO pitch:0;roll:0;yaw:0;vgx:0;vgy:0;vgz:0;templ:81;temph:83;tof:10;h:0;bat:28;baro:147.19;time:0;agx:0.00;agy:-11.00;agz:-999.00;
2020-10-13 18:50:22,248 INFO pitch:0;roll:0;yaw:0;vgx:0;vgy:0;vgz:0;templ:81;temph:83;tof:10;h:0;bat:28;baro:147.22;time:0;agx:1.00;agy:-10.00;agz:-998.00;
2020-10-13 18:50:22,350 INFO pitch:0;roll:0;yaw:0;vgx:0;vgy:0;vgz:0;templ:81;temph:83;tof:10;h:0;bat:28;baro:147.21;time:0;agx:2.00;agy:-11.00;agz:-1001.00;
2020-10-13 18:50:22,453 INFO pitch:0;roll:0;yaw:0;vgx:0;vgy:0;vgz:0;templ:81;temph:83;tof:10;h:0;bat:28;baro:147.19;time:0;agx:1.00;agy:-11.00;agz:-1001.00;
2020-10-13 18:50:22,554 INFO pitch:0;roll:0;yaw:0;vgx:0;vgy:0;vgz:0;templ:81;temph:83;tof:10;h:0;bat:28;baro:147.25;time:0;agx:1.00;agy:-12.00;agz:-1001.00;
2020-10-13 18:50:22,656 INFO pitch:0;roll:0;yaw:0;vgx:0;vgy:0;vgz:0;templ:81;temph:83;tof:10;h:0;bat:28;baro:147.21;time:0;agx:0.00;agy:-11.00;agz:-1000.00;
2020-10-13 18:50:22,758 INFO pitch:0;roll:0;yaw:0;vgx:0;vgy:0;vgz:0;templ:81;temph:83;tof:10;h:0;bat:28;baro:147.25;time:0;agx:0.00;agy:-11.00;agz:-1002.00;
2020-10-13 18:50:22,860 INFO pitch:0;roll:0;yaw:0;vgx:0;vgy:0;vgz:0;templ:81;temph:83;tof:10;h:0;bat:28;baro:147.27;time:0;agx:1.00;agy:-10.00;agz:-1001.00;
2020-10-13 18:50:22,962 INFO pitch:0;roll:0;yaw:0;vgx:0;vgy:0;vgz:0;templ:81;temph:83;tof:10;h:0;bat:28;baro:147.24;time:0;agx:1.00;agy:-12.00;agz:-1001.00;
2020-10-13 18:50:23,064 INFO pitch:0;roll:0;yaw:0;vgx:0;vgy:0;vgz:0;templ:81;temph:83;tof:10;h:0;bat:28;baro:147.21;time:0;agx:0.00;agy:-11.00;agz:-999.00;
2020-10-13 18:50:23,167 INFO pitch:0;roll:0;yaw:0;vgx:0;vgy:0;vgz:0;templ:81;temph:83;tof:10;h:0;bat:28;baro:147.23;time:0;agx:0.00;agy:-10.00;agz:-998.00;
2020-10-13 18:50:23,217 INFO pitch:0;roll:0;yaw:0;vgx:0;vgy:0;vgz:0;templ:81;temph:83;tof:10;h:0;bat:28;baro:147.25;time:0;agx:0.00;agy:-10.00;agz:-999.00;
2020-10-13 18:50:23,319 INFO pitch:0;roll:0;yaw:0;vgx:0;vgy:0;vgz:0;templ:81;temph:83;tof:10;h:0;bat:28;baro:147.17;time:0;agx:3.00;agy:-11.00;agz:-999.00;
2020-10-13 18:50:23,421 INFO pitch:0;roll:0;yaw:0;vgx:0;vgy:0;vgz:0;templ:81;temph:83;tof:10;h:0;bat:28;baro:147.18;time:0;agx:1.00;agy:-12.00;agz:-998.00;
2020-10-13 18:50:23,523 INFO pitch:0;roll:0;yaw:0;vgx:0;vgy:0;vgz:0;templ:81;temph:83;tof:10;h:0;bat:28;baro:147.21;time:0;agx:0.00;agy:-11.00;agz:-998.00;
2020-10-13 18:50:23,625 INFO pitch:0;roll:0;yaw:0;vgx:0;vgy:0;vgz:0;templ:81;temph:83;tof:10;h:0;bat:28;baro:147.15;time:0;agx:0.00;agy:-10.00;agz:-999.00;
2020-10-13 18:50:23,727 INFO pitch:0;roll:0;yaw:0;vgx:0;vgy:0;vgz:0;templ:81;temph:83;tof:10;h:0;bat:28;baro:147.17;time:0;agx:1.00;agy:-11.00;agz:-999.00;
2020-10-13 18:50:23,829 INFO pitch:0;roll:0;yaw:0;vgx:0;vgy:0;vgz:0;templ:81;temph:83;tof:10;h:0;bat:28;baro:147.19;time:0;agx:0.00;agy:-9.00;agz:-997.00;
2020-10-13 18:50:23,931 INFO pitch:0;roll:0;yaw:0;vgx:0;vgy:0;vgz:0;templ:81;temph:83;tof:10;h:0;bat:28;baro:147.19;time:0;agx:0.00;agy:-12.00;agz:-998.00;
2020-10-13 18:50:24,033 INFO pitch:0;roll:0;yaw:0;vgx:0;vgy:0;vgz:0;templ:81;temph:83;tof:10;h:0;bat:28;baro:147.16;time:0;agx:1.00;agy:-11.00;agz:-1000.00;
2020-10-13 18:50:24,139 INFO pitch:0;roll:0;yaw:0;vgx:0;vgy:0;vgz:0;templ:81;temph:83;tof:10;h:0;bat:28;baro:147.19;time:0;agx:2.00;agy:-11.00;agz:-998.00;
2020-10-13 18:50:24,241 INFO pitch:0;roll:0;yaw:0;vgx:0;vgy:0;vgz:0;templ:81;temph:83;tof:10;h:0;bat:28;baro:147.18;time:0;agx:0.00;agy:-11.00;agz:-1002.00;
2020-10-13 18:50:24,341 INFO pitch:0;roll:0;yaw:0;vgx:0;vgy:0;vgz:0;templ:81;temph:83;tof:10;h:0;bat:28;baro:147.18;time:0;agx:1.00;agy:-9.00;agz:-1001.00;
2020-10-13 18:50:24,443 INFO pitch:0;roll:0;yaw:0;vgx:0;vgy:0;vgz:0;templ:81;temph:83;tof:10;h:0;bat:28;baro:147.16;time:0;agx:2.00;agy:-10.00;agz:-1000.00;
2020-10-13 18:50:24,544 INFO pitch:0;roll:0;yaw:0;vgx:0;vgy:0;vgz:0;templ:81;temph:83;tof:10;h:0;bat:28;baro:147.17;time:0;agx:2.00;agy:-11.00;agz:-998.00;
2020-10-13 18:50:24,647 INFO pitch:0;roll:0;yaw:0;vgx:0;vgy:0;vgz:0;templ:81;temph:83;tof:10;h:0;bat:28;baro:147.15;time:0;agx:0.00;agy:-11.00;agz:-1002.00;
2020-10-13 18:50:24,749 INFO pitch:0;roll:0;yaw:0;vgx:0;vgy:0;vgz:0;templ:81;temph:83;tof:10;h:0;bat:28;baro:147.14;time:0;agx:0.00;agy:-11.00;agz:-999.00;
2020-10-13 18:50:24,851 INFO pitch:0;roll:0;yaw:0;vgx:0;vgy:0;vgz:0;templ:81;temph:83;tof:10;h:0;bat:28;baro:147.14;time:0;agx:1.00;agy:-11.00;agz:-999.00;
2020-10-13 18:50:24,953 INFO pitch:0;roll:0;yaw:0;vgx:0;vgy:0;vgz:0;templ:81;temph:83;tof:10;h:0;bat:28;baro:147.16;time:0;agx:1.00;agy:-9.00;agz:-1000.00;
2020-10-13 18:50:25,055 INFO pitch:0;roll:0;yaw:0;vgx:0;vgy:0;vgz:0;templ:81;temph:83;tof:10;h:0;bat:28;baro:147.16;time:0;agx:0.00;agy:-10.00;agz:-1002.00;
2020-10-13 18:50:25,157 INFO pitch:0;roll:0;yaw:0;vgx:0;vgy:0;vgz:0;templ:81;temph:83;tof:10;h:0;bat:28;baro:147.06;time:0;agx:0.00;agy:-11.00;agz:-1001.00;
2020-10-13 18:50:25,259 INFO pitch:0;roll:0;yaw:0;vgx:0;vgy:0;vgz:0;templ:81;temph:83;tof:10;h:0;bat:28;baro:147.10;time:0;agx:2.00;agy:-10.00;agz:-1002.00;
2020-10-13 18:50:25,361 INFO pitch:0;roll:0;yaw:0;vgx:0;vgy:0;vgz:0;templ:81;temph:83;tof:10;h:0;bat:28;baro:147.11;time:0;agx:0.00;agy:-11.00;agz:-999.00;
2020-10-13 18:50:25,463 INFO pitch:0;roll:0;yaw:0;vgx:0;vgy:0;vgz:0;templ:81;temph:83;tof:10;h:0;bat:28;baro:147.13;time:0;agx:0.00;agy:-9.00;agz:-999.00;
2020-10-13 18:50:25,565 INFO pitch:0;roll:0;yaw:0;vgx:0;vgy:0;vgz:0;templ:81;temph:83;tof:10;h:0;bat:28;baro:147.13;time:0;agx:1.00;agy:-11.00;agz:-1000.00;
2020-10-13 18:50:25,667 INFO pitch:0;roll:0;yaw:0;vgx:0;vgy:0;vgz:0;templ:81;temph:83;tof:10;h:0;bat:28;baro:147.15;time:0;agx:1.00;agy:-11.00;agz:-1000.00;
2020-10-13 18:50:25,772 INFO pitch:0;roll:0;yaw:0;vgx:0;vgy:0;vgz:0;templ:81;temph:83;tof:10;h:0;bat:28;baro:147.16;time:0;agx:1.00;agy:-11.00;agz:-999.00;
2020-10-13 18:50:25,876 INFO pitch:0;roll:0;yaw:0;vgx:0;vgy:0;vgz:0;templ:81;temph:83;tof:10;h:0;bat:28;baro:147.21;time:0;agx:1.00;agy:-11.00;agz:-998.00;
2020-10-13 18:50:25,979 INFO pitch:0;roll:0;yaw:0;vgx:0;vgy:0;vgz:0;templ:81;temph:83;tof:10;h:0;bat:28;baro:147.16;time:0;agx:0.00;agy:-12.00;agz:-1002.00;
2020-10-13 18:50:26,076 INFO pitch:0;roll:0;yaw:0;vgx:0;vgy:0;vgz:0;templ:81;temph:83;tof:10;h:0;bat:28;baro:147.19;time:0;agx:1.00;agy:-11.00;agz:-1000.00;
2020-10-13 18:50:26,177 INFO pitch:0;roll:0;yaw:0;vgx:0;vgy:0;vgz:0;templ:81;temph:83;tof:10;h:0;bat:28;baro:147.22;time:0;agx:1.00;agy:-11.00;agz:-999.00;
2020-10-13 18:50:26,279 INFO pitch:0;roll:0;yaw:0;vgx:0;vgy:0;vgz:0;templ:81;temph:83;tof:10;h:0;bat:28;baro:147.15;time:0;agx:1.00;agy:-11.00;agz:-998.00;
2020-10-13 18:50:26,381 INFO pitch:0;roll:0;yaw:0;vgx:0;vgy:0;vgz:0;templ:81;temph:83;tof:10;h:0;bat:28;baro:147.16;time:0;agx:2.00;agy:-12.00;agz:-1000.00;
2020-10-13 18:50:26,483 INFO pitch:0;roll:0;yaw:0;vgx:0;vgy:0;vgz:0;templ:81;temph:83;tof:10;h:0;bat:28;baro:147.13;time:0;agx:1.00;agy:-10.00;agz:-996.00;
2020-10-13 18:50:26,585 INFO pitch:0;roll:0;yaw:0;vgx:0;vgy:0;vgz:0;templ:81;temph:83;tof:10;h:0;bat:28;baro:147.17;time:0;agx:0.00;agy:-12.00;agz:-999.00;
2020-10-13 18:50:26,688 INFO pitch:0;roll:0;yaw:0;vgx:0;vgy:0;vgz:0;templ:81;temph:83;tof:10;h:0;bat:28;baro:147.22;time:0;agx:1.00;agy:-10.00;agz:-998.00;
2020-10-13 18:50:26,789 INFO pitch:0;roll:0;yaw:0;vgx:0;vgy:0;vgz:0;templ:82;temph:84;tof:10;h:0;bat:28;baro:147.18;time:0;agx:0.00;agy:-12.00;agz:-1000.00;
2020-10-13 18:50:26,844 INFO pitch:0;roll:0;yaw:0;vgx:0;vgy:0;vgz:0;templ:82;temph:84;tof:10;h:0;bat:27;baro:147.29;time:0;agx:1.00;agy:-11.00;agz:-1000.00;
2020-10-13 18:50:26,942 INFO pitch:0;roll:0;yaw:0;vgx:0;vgy:0;vgz:0;templ:82;temph:84;tof:10;h:0;bat:27;baro:147.21;time:0;agx:1.00;agy:-9.00;agz:-1000.00;
2020-10-13 18:50:27,044 INFO pitch:0;roll:0;yaw:0;vgx:0;vgy:0;vgz:0;templ:82;temph:84;tof:10;h:0;bat:27;baro:147.25;time:0;agx:2.00;agy:-12.00;agz:-1001.00;
2020-10-13 18:50:27,147 INFO pitch:0;roll:0;yaw:0;vgx:0;vgy:0;vgz:0;templ:82;temph:84;tof:10;h:0;bat:27;baro:147.20;time:0;agx:1.00;agy:-12.00;agz:-1000.00;
2020-10-13 18:50:27,248 INFO pitch:0;roll:0;yaw:0;vgx:0;vgy:0;vgz:0;templ:82;temph:84;tof:10;h:0;bat:27;baro:147.24;time:0;agx:0.00;agy:-10.00;agz:-997.00;
2020-10-13 18:50:27,351 INFO pitch:0;roll:0;yaw:0;vgx:0;vgy:0;vgz:0;templ:82;temph:84;tof:10;h:0;bat:27;baro:147.13;time:0;agx:1.00;agy:-10.00;agz:-997.00;
2020-10-13 18:50:27,453 INFO pitch:0;roll:0;yaw:0;vgx:0;vgy:0;vgz:0;templ:82;temph:84;tof:10;h:0;bat:27;baro:147.26;time:0;agx:1.00;agy:-10.00;agz:-1001.00;
2020-10-13 18:50:27,555 INFO pitch:0;roll:0;yaw:0;vgx:0;vgy:0;vgz:0;templ:82;temph:84;tof:10;h:0;bat:27;baro:147.22;time:0;agx:0.00;agy:-11.00;agz:-999.00;
2020-10-13 18:50:27,657 INFO pitch:0;roll:0;yaw:0;vgx:0;vgy:0;vgz:0;templ:82;temph:84;tof:10;h:0;bat:27;baro:147.22;time:0;agx:0.00;agy:-10.00;agz:-997.00;
2020-10-13 18:50:27,760 INFO pitch:0;roll:0;yaw:0;vgx:0;vgy:0;vgz:0;templ:81;temph:83;tof:10;h:0;bat:27;baro:147.26;time:0;agx:2.00;agy:-13.00;agz:-997.00;
2020-10-13 18:50:27,860 INFO pitch:0;roll:0;yaw:0;vgx:0;vgy:0;vgz:0;templ:81;temph:83;tof:10;h:0;bat:27;baro:147.18;time:0;agx:0.00;agy:-13.00;agz:-999.00;
2020-10-13 18:50:27,964 INFO pitch:0;roll:0;yaw:0;vgx:0;vgy:0;vgz:0;templ:81;temph:83;tof:10;h:0;bat:27;baro:147.16;time:0;agx:0.00;agy:-10.00;agz:-1000.00;
2020-10-13 18:50:28,064 INFO pitch:0;roll:0;yaw:0;vgx:0;vgy:0;vgz:0;templ:81;temph:83;tof:10;h:0;bat:27;baro:147.25;time:0;agx:0.00;agy:-12.00;agz:-1001.00;
2020-10-13 18:50:28,167 INFO pitch:0;roll:0;yaw:0;vgx:0;vgy:0;vgz:0;templ:81;temph:83;tof:10;h:0;bat:27;baro:147.18;time:0;agx:0.00;agy:-11.00;agz:-1001.00;
2020-10-13 18:50:28,270 INFO pitch:0;roll:0;yaw:0;vgx:0;vgy:0;vgz:0;templ:81;temph:83;tof:10;h:0;bat:27;baro:147.19;time:0;agx:2.00;agy:-10.00;agz:-1001.00;
2020-10-13 18:50:28,373 INFO pitch:0;roll:0;yaw:0;vgx:0;vgy:0;vgz:0;templ:81;temph:83;tof:10;h:0;bat:27;baro:147.18;time:0;agx:1.00;agy:-10.00;agz:-998.00;
2020-10-13 18:50:28,476 INFO pitch:0;roll:0;yaw:0;vgx:0;vgy:0;vgz:0;templ:81;temph:83;tof:10;h:0;bat:27;baro:147.23;time:0;agx:1.00;agy:-11.00;agz:-1001.00;
2020-10-13 18:50:28,575 INFO pitch:0;roll:0;yaw:0;vgx:0;vgy:0;vgz:0;templ:81;temph:83;tof:10;h:0;bat:27;baro:147.11;time:0;agx:0.00;agy:-11.00;agz:-999.00;
2020-10-13 18:50:28,677 INFO pitch:0;roll:0;yaw:0;vgx:0;vgy:0;vgz:0;templ:81;temph:83;tof:10;h:0;bat:27;baro:147.15;time:0;agx:0.00;agy:-10.00;agz:-998.00;
2020-10-13 18:50:28,779 INFO pitch:0;roll:0;yaw:0;vgx:0;vgy:0;vgz:0;templ:82;temph:84;tof:10;h:0;bat:27;baro:147.13;time:0;agx:1.00;agy:-11.00;agz:-1001.00;
2020-10-13 18:50:28,881 INFO pitch:0;roll:0;yaw:0;vgx:0;vgy:0;vgz:0;templ:82;temph:84;tof:10;h:0;bat:27;baro:147.15;time:0;agx:0.00;agy:-9.00;agz:-1000.00;
